{
"type": "FeatureCollection",
"crs": { "type": "name", "properties": { "name": "urn:ogc:def:crs:OGC:1.3:CRS84" } },
"features": [
{ "type": "Feature", "properties": { "ADDRESS_POINT_ID": 14037509, "ADDRESS_NUMBER": "400", "LINEAR_NAME_FULL": "King St W", "ADDRESS_FULL": "400 King St W", "POSTAL_CODE": "M5V 1K2", "MUNICIPALITY": "former Toronto", "CITY": "Toronto", "WARD": "Spadina-Fort York (10)", "PLACE_NAME": null, "GENERAL_USE_CODE": 112001, "CENTRELINE_ID": 10222696, "LO_NUM": 400, "LO_NUM_SUF": null, "HI_NUM": null, "HI_NUM_SUF": null, "LINEAR_NAME_ID": 3780, "X": null, "Y": null, "LONGITUDE": -79.3931911918, "LATITUDE": 43.646102091000003, "ID": 65, "NAME": "Mountain Equipment Co-op", "UNIT": null, "PHONE": "416-340-2667", "EMAIL": null, "RENTAL": "NO", "OBJECTID": 1 }, "geometry": { "type": "Point", "coordinates": [ -79.393187953032509, 43.646093508034411 ] } },
{ "type": "Feature", "properties": { "ADDRESS_POINT_ID": 10576060, "ADDRESS_NUMBER": "882", "LINEAR_NAME_FULL": "College St", "ADDRESS_FULL": "882 College St", "POSTAL_CODE": "M6H 1A3", "MUNICIPALITY": "former Toronto", "CITY": "Toronto", "WARD": "Davenport (9)", "PLACE_NAME": null, "GENERAL_USE_CODE": 115001, "CENTRELINE_ID": 10576046, "LO_NUM": 882, "LO_NUM_SUF": null, "HI_NUM": null, "HI_NUM_SUF": null, "LINEAR_NAME_ID": 9765, "X": null, "Y": null, "LONGITUDE": -79.424765419399989, "LATITUDE": 43.654156636899998, "ID": 66, "NAME": "My Little Bike Shop", "UNIT": null, "PHONE": "647-967-0122", "EMAIL": "onetimetwotime@hotmail.com", "RENTAL": "NO", "OBJECTID": 2 }, "geometry": { "type": "Point", "coordinates": [ -79.424762172295033, 43.654148052534566 ] } },
{ "type": "Feature", "properties": { "ADDRESS_POINT_ID": 9941962, "ADDRESS_NUMBER": "3731", "LINEAR_NAME_FULL": "Lake Shore Blvd W", "ADDRESS_FULL": "3731 Lake Shore Blvd W", "POSTAL_CODE": "M8W 1P9", "MUNICIPALITY": "Etobicoke", "CITY": "Toronto", "WARD": "Etobicoke-Lakeshore (3)", "PLACE_NAME": null, "GENERAL_USE_CODE": 115001, "CENTRELINE_ID": 9941960, "LO_NUM": 3731, "LO_NUM_SUF": null, "HI_NUM": null, "HI_NUM_SUF": null, "LINEAR_NAME_ID": 1962, "X": null, "Y": null, "LONGITUDE": -79.539693295500001, "LATITUDE": 43.592830015799997, "ID": 68, "NAME": "Oxygen Bike Co.", "UNIT": null, "PHONE": "416-259-2453", "EMAIL": "ride@oxygenbikes.com", "RENTAL": "NO", "OBJECTID": 3 }, "geometry": { "type": "Point", "coordinates": [ -79.539690022878261, 43.592821454497624 ] } },
{ "type": "Feature", "properties": { "ADDRESS_POINT_ID": 8407969, "ADDRESS_NUMBER": "1292", "LINEAR_NAME_FULL": "Queen St E", "ADDRESS_FULL": "1292 Queen St E", "POSTAL_CODE": "M4L 1C4", "MUNICIPALITY": "former Toronto", "CITY": "Toronto", "WARD": "Toronto-Danforth (14)", "PLACE_NAME": null, "GENERAL_USE_CODE": 115001, "CENTRELINE_ID": 14171607, "LO_NUM": 1292, "LO_NUM_SUF": null, "HI_NUM": null, "HI_NUM_SUF": null, "LINEAR_NAME_ID": 4237, "X": null, "Y": null, "LONGITUDE": -79.328558556700003, "LATITUDE": 43.6639136732, "ID": 69, "NAME": "Polly's Recycle", "UNIT": null, "PHONE": "416-461-4312", "EMAIL": "zombie@cycleszombie.com", "RENTAL": "NO", "OBJECTID": 4 }, "geometry": { "type": "Point", "coordinates": [ -79.328555343308821, 43.663905088206775 ] } },
{ "type": "Feature", "properties": { "ADDRESS_POINT_ID": 6052300, "ADDRESS_NUMBER": "2111", "LINEAR_NAME_FULL": "Jane St", "ADDRESS_FULL": "2111 Jane St", "POSTAL_CODE": "M3M 1A2", "MUNICIPALITY": "North York", "CITY": "Toronto", "WARD": "York Centre (6)", "PLACE_NAME": null, "GENERAL_USE_CODE": 107005, "CENTRELINE_ID": 6052297, "LO_NUM": 2111, "LO_NUM_SUF": null, "HI_NUM": null, "HI_NUM_SUF": null, "LINEAR_NAME_ID": 694, "X": null, "Y": null, "LONGITUDE": -79.507802904100004, "LATITUDE": 43.718977137700001, "ID": 1, "NAME": "Al's Star Cycle & Sports", "UNIT": null, "PHONE": "416-249-0676", "EMAIL": null, "RENTAL": "NO", "OBJECTID": 5 }, "geometry": { "type": "Point", "coordinates": [ -79.507799629613672, 43.718968550404824 ] } },
{ "type": "Feature", "properties": { "ADDRESS_POINT_ID": 10430606, "ADDRESS_NUMBER": "29", "LINEAR_NAME_FULL": "Barton Ave", "ADDRESS_FULL": "29 Barton Ave", "POSTAL_CODE": "M6G 1P2", "MUNICIPALITY": "former Toronto", "CITY": "Toronto", "WARD": "University-Rosedale (11)", "PLACE_NAME": null, "GENERAL_USE_CODE": 115001, "CENTRELINE_ID": 14011886, "LO_NUM": 29, "LO_NUM_SUF": null, "HI_NUM": null, "HI_NUM_SUF": null, "LINEAR_NAME_ID": 2954, "X": null, "Y": null, "LONGITUDE": -79.412634861800001, "LATITUDE": 43.667964737700004, "ID": 2, "NAME": "Bateman's Bicycle Company", "UNIT": null, "PHONE": "416-528-2453", "EMAIL": "info@batemanbikeco.com", "RENTAL": "YES", "OBJECTID": 6 }, "geometry": { "type": "Point", "coordinates": [ -79.412631614304274, 43.667956154922159 ] } },
{ "type": "Feature", "properties": { "ADDRESS_POINT_ID": 11165051, "ADDRESS_NUMBER": "913", "LINEAR_NAME_FULL": "Bathurst St", "ADDRESS_FULL": "913 Bathurst St", "POSTAL_CODE": "M5R 3G4", "MUNICIPALITY": "former Toronto", "CITY": "Toronto", "WARD": "University-Rosedale (11)", "PLACE_NAME": null, "GENERAL_USE_CODE": 115001, "CENTRELINE_ID": 11165038, "LO_NUM": 913, "LO_NUM_SUF": null, "HI_NUM": null, "HI_NUM_SUF": null, "LINEAR_NAME_ID": 436, "X": null, "Y": null, "LONGITUDE": -79.412500121800008, "LATITUDE": 43.669310972399998, "ID": 3, "NAME": "Bateman's Bicycle Company", "UNIT": null, "PHONE": "416-538-2453", "EMAIL": "info@batemanbikeco.com", "RENTAL": "YES", "OBJECTID": 7 }, "geometry": { "type": "Point", "coordinates": [ -79.412496877646078, 43.669302390086393 ] } },
{ "type": "Feature", "properties": { "ADDRESS_POINT_ID": 856078, "ADDRESS_NUMBER": "1882", "LINEAR_NAME_FULL": "Queen St E", "ADDRESS_FULL": "1882 Queen St E", "POSTAL_CODE": "M4L 1H2", "MUNICIPALITY": "former Toronto", "CITY": "Toronto", "WARD": "Beaches-East York (19)", "PLACE_NAME": null, "GENERAL_USE_CODE": 107010, "CENTRELINE_ID": 1142152, "LO_NUM": 1882, "LO_NUM_SUF": null, "HI_NUM": null, "HI_NUM_SUF": null, "LINEAR_NAME_ID": 4237, "X": null, "Y": null, "LONGITUDE": -79.306104360299997, "LATITUDE": 43.668845152399996, "ID": 4, "NAME": "Beach Toyz", "UNIT": null, "PHONE": "416-464-8920", "EMAIL": "john@beachtoyz.ca", "RENTAL": "YES", "OBJECTID": 8 }, "geometry": { "type": "Point", "coordinates": [ -79.306101147252875, 43.668836565330459 ] } },
{ "type": "Feature", "properties": { "ADDRESS_POINT_ID": 982341, "ADDRESS_NUMBER": "835", "LINEAR_NAME_FULL": "Albion Rd", "ADDRESS_FULL": "835 Albion Rd", "POSTAL_CODE": "M9V 1A3", "MUNICIPALITY": "Etobicoke", "CITY": "Toronto", "WARD": "Etobicoke North (1)", "PLACE_NAME": null, "GENERAL_USE_CODE": 107010, "CENTRELINE_ID": 907164, "LO_NUM": 835, "LO_NUM_SUF": null, "HI_NUM": null, "HI_NUM_SUF": null, "LINEAR_NAME_ID": 1012, "X": null, "Y": null, "LONGITUDE": -79.559643491599999, "LATITUDE": 43.734364385, "ID": 6, "NAME": "Bicycle Depot", "UNIT": null, "PHONE": "416-741-1452", "EMAIL": "bicycledepot@hotmail.com", "RENTAL": "NO", "OBJECTID": 9 }, "geometry": { "type": "Point", "coordinates": [ -79.559640189059252, 43.73435579300488 ] } },
{ "type": "Feature", "properties": { "ADDRESS_POINT_ID": 8106085, "ADDRESS_NUMBER": "563", "LINEAR_NAME_FULL": "Spadina Cres", "ADDRESS_FULL": "563 Spadina Cres", "POSTAL_CODE": "M5S 2J7", "MUNICIPALITY": "former Toronto", "CITY": "Toronto", "WARD": "University-Rosedale (11)", "PLACE_NAME": null, "GENERAL_USE_CODE": 115001, "CENTRELINE_ID": 8106036, "LO_NUM": 563, "LO_NUM_SUF": null, "HI_NUM": null, "HI_NUM_SUF": null, "LINEAR_NAME_ID": 4427, "X": null, "Y": null, "LONGITUDE": -79.400064916199995, "LATITUDE": 43.660426109500001, "ID": 8, "NAME": "Bike Chain U of T", "UNIT": null, "PHONE": "416-978-6849", "EMAIL": "bikechain@utoronto.ca  bikechainuoft@gmail.com", "RENTAL": "NO", "OBJECTID": 10 }, "geometry": { "type": "Point", "coordinates": [ -79.400061672721634, 43.660417523928267 ] } },
{ "type": "Feature", "properties": { "ADDRESS_POINT_ID": 773314, "ADDRESS_NUMBER": "1292", "LINEAR_NAME_FULL": "Bloor St W", "ADDRESS_FULL": "1292 Bloor St W", "POSTAL_CODE": "M6H 1N9", "MUNICIPALITY": "former Toronto", "CITY": "Toronto", "WARD": "Davenport (9)", "PLACE_NAME": null, "GENERAL_USE_CODE": 107010, "CENTRELINE_ID": 1144172, "LO_NUM": 1292, "LO_NUM_SUF": null, "HI_NUM": null, "HI_NUM_SUF": null, "LINEAR_NAME_ID": 458, "X": null, "Y": null, "LONGITUDE": -79.442104678000007, "LATITUDE": 43.658641007, "ID": 10, "NAME": "Bike Pirates", "UNIT": null, "PHONE": "416-555-5555", "EMAIL": "info@bikepirates.com  volunteer@bikepirates.com", "RENTAL": "NO", "OBJECTID": 11 }, "geometry": { "type": "Point", "coordinates": [ -79.442104675993917, 43.65864101335135 ] } },
{ "type": "Feature", "properties": { "ADDRESS_POINT_ID": 10558074, "ADDRESS_NUMBER": "3096", "LINEAR_NAME_FULL": "Dundas St W", "ADDRESS_FULL": "3096 Dundas St W", "POSTAL_CODE": "M6P 1Z8", "MUNICIPALITY": "former Toronto", "CITY": "Toronto", "WARD": "Parkdale-High Park (4)", "PLACE_NAME": null, "GENERAL_USE_CODE": 115001, "CENTRELINE_ID": 10558060, "LO_NUM": 3096, "LO_NUM_SUF": null, "HI_NUM": null, "HI_NUM_SUF": null, "LINEAR_NAME_ID": 558, "X": null, "Y": null, "LONGITUDE": -79.472992861800009, "LATITUDE": 43.665761794399998, "ID": 11, "NAME": "Bike Place", "UNIT": null, "PHONE": "416-766-1085", "EMAIL": "bikeplace@yahoo.ca", "RENTAL": "NO", "OBJECTID": 12 }, "geometry": { "type": "Point", "coordinates": [ -79.472989593256727, 43.665753210194765 ] } },
{ "type": "Feature", "properties": { "ADDRESS_POINT_ID": 776360, "ADDRESS_NUMBER": "235", "LINEAR_NAME_FULL": "Broadview Ave", "ADDRESS_FULL": "235 Broadview Ave", "POSTAL_CODE": "M4M 2G3", "MUNICIPALITY": "former Toronto", "CITY": "Toronto", "WARD": "Toronto-Danforth (14)", "PLACE_NAME": null, "GENERAL_USE_CODE": 107010, "CENTRELINE_ID": 1143632, "LO_NUM": 235, "LO_NUM_SUF": null, "HI_NUM": null, "HI_NUM_SUF": null, "LINEAR_NAME_ID": 44, "X": null, "Y": null, "LONGITUDE": -79.350949296099998, "LATITUDE": 43.662352193800004, "ID": 12, "NAME": "Bike Sauce", "UNIT": null, "PHONE": "647-724-7880", "EMAIL": "info@bikesauce  volunteer@bikesauce.org donate@bikesauce.org", "RENTAL": "NO", "OBJECTID": 13 }, "geometry": { "type": "Point", "coordinates": [ -79.350946073704904, 43.662343608557137 ] } },
{ "type": "Feature", "properties": { "ADDRESS_POINT_ID": 10494142, "ADDRESS_NUMBER": "1970", "LINEAR_NAME_FULL": "Yonge St", "ADDRESS_FULL": "1970 Yonge St", "POSTAL_CODE": "M4S 1Z7", "MUNICIPALITY": "former Toronto", "CITY": "Toronto", "WARD": "Toronto-St. Paul's (12)", "PLACE_NAME": null, "GENERAL_USE_CODE": 115001, "CENTRELINE_ID": 10494141, "LO_NUM": 1970, "LO_NUM_SUF": null, "HI_NUM": null, "HI_NUM_SUF": null, "LINEAR_NAME_ID": 4733, "X": null, "Y": null, "LONGITUDE": -79.397246554199995, "LATITUDE": 43.699806626899999, "ID": 13, "NAME": "Biketoons", "UNIT": null, "PHONE": "416-587-7204", "EMAIL": "biketoons@gmail.com", "RENTAL": "NO", "OBJECTID": 14 }, "geometry": { "type": "Point", "coordinates": [ -79.397243308010346, 43.699798040685678 ] } },
{ "type": "Feature", "properties": { "ADDRESS_POINT_ID": 765187, "ADDRESS_NUMBER": "309", "LINEAR_NAME_FULL": "Augusta Ave", "ADDRESS_FULL": "309 Augusta Ave", "POSTAL_CODE": "M5T 2M2", "MUNICIPALITY": "former Toronto", "CITY": "Toronto", "WARD": "University-Rosedale (11)", "PLACE_NAME": null, "GENERAL_USE_CODE": 112001, "CENTRELINE_ID": 1144464, "LO_NUM": 309, "LO_NUM_SUF": null, "HI_NUM": null, "HI_NUM_SUF": null, "LINEAR_NAME_ID": 2918, "X": null, "Y": null, "LONGITUDE": -79.402497993300003, "LATITUDE": 43.656768970500003, "ID": 16, "NAME": "Bike On Wheels", "UNIT": null, "PHONE": "416-966-2453", "EMAIL": "queenstreet@bikesonwheels.ca", "RENTAL": "NO", "OBJECTID": 15 }, "geometry": { "type": "Point", "coordinates": [ -79.402494755999598, 43.656760388281498 ] } },
{ "type": "Feature", "properties": { "ADDRESS_POINT_ID": 14037665, "ADDRESS_NUMBER": "388", "LINEAR_NAME_FULL": "Carlaw Ave", "ADDRESS_FULL": "388 Carlaw Ave", "POSTAL_CODE": "M4M 2T4", "MUNICIPALITY": "former Toronto", "CITY": "Toronto", "WARD": "Toronto-Danforth (14)", "PLACE_NAME": null, "GENERAL_USE_CODE": 115001, "CENTRELINE_ID": 7576988, "LO_NUM": 388, "LO_NUM_SUF": null, "HI_NUM": null, "HI_NUM_SUF": null, "LINEAR_NAME_ID": 56, "X": null, "Y": null, "LONGITUDE": -79.342280830699991, "LATITUDE": 43.665737204199999, "ID": 17, "NAME": "Biseagal", "UNIT": "102-E", "PHONE": "416-466-2212", "EMAIL": "biseagal.info@gmail.com", "RENTAL": "NO", "OBJECTID": 16 }, "geometry": { "type": "Point", "coordinates": [ -79.342277607273701, 43.665728622920504 ] } },
{ "type": "Feature", "properties": { "ADDRESS_POINT_ID": 9446130, "ADDRESS_NUMBER": "345", "LINEAR_NAME_FULL": "Sorauren Ave", "ADDRESS_FULL": "345 Sorauren Ave", "POSTAL_CODE": "M6R 2G5", "MUNICIPALITY": "former Toronto", "CITY": "Toronto", "WARD": "Parkdale-High Park (4)", "PLACE_NAME": null, "GENERAL_USE_CODE": 115001, "CENTRELINE_ID": 9446120, "LO_NUM": 345, "LO_NUM_SUF": null, "HI_NUM": null, "HI_NUM_SUF": null, "LINEAR_NAME_ID": 4419, "X": null, "Y": null, "LONGITUDE": -79.444075867400002, "LATITUDE": 43.649467821800002, "ID": 18, "NAME": "Blacksmith Cycles", "UNIT": "Buzzer #4, 2nd Floor", "PHONE": "416-853-9852", "EMAIL": "info@blacksmithcycle.com", "RENTAL": "NO", "OBJECTID": 17 }, "geometry": { "type": "Point", "coordinates": [ -79.444072616877122, 43.649459242478287 ] } },
{ "type": "Feature", "properties": { "ADDRESS_POINT_ID": 7569328, "ADDRESS_NUMBER": "701", "LINEAR_NAME_FULL": "Danforth Ave", "ADDRESS_FULL": "701 Danforth Ave", "POSTAL_CODE": "M4J 1L2", "MUNICIPALITY": "former Toronto", "CITY": "Toronto", "WARD": "Toronto-Danforth (14)", "PLACE_NAME": null, "GENERAL_USE_CODE": 107010, "CENTRELINE_ID": 14025108, "LO_NUM": 701, "LO_NUM_SUF": null, "HI_NUM": null, "HI_NUM_SUF": null, "LINEAR_NAME_ID": 86, "X": null, "Y": null, "LONGITUDE": -79.343572114200001, "LATITUDE": 43.678948625499999, "ID": 20, "NAME": "Broom Wagon Cyclery", "UNIT": null, "PHONE": "647-352-6200", "EMAIL": "broomwagoncyclery@gmail.com", "RENTAL": "NO", "OBJECTID": 18 }, "geometry": { "type": "Point", "coordinates": [ -79.34356888626391, 43.678940039717588 ] } },
{ "type": "Feature", "properties": { "ADDRESS_POINT_ID": 10341122, "ADDRESS_NUMBER": "2447", "LINEAR_NAME_FULL": "Bloor St W", "ADDRESS_FULL": "2447 Bloor St W", "POSTAL_CODE": "M6S 1P7", "MUNICIPALITY": "former Toronto", "CITY": "Toronto", "WARD": "Parkdale-High Park (4)", "PLACE_NAME": null, "GENERAL_USE_CODE": 115001, "CENTRELINE_ID": 10250316, "LO_NUM": 2447, "LO_NUM_SUF": null, "HI_NUM": null, "HI_NUM_SUF": null, "LINEAR_NAME_ID": 458, "X": null, "Y": null, "LONGITUDE": -79.484354874999994, "LATITUDE": 43.649069687400001, "ID": 21, "NAME": "Brown's Sport & Cycle", "UNIT": null, "PHONE": "416-763-4176", "EMAIL": "info@brownssports.com", "RENTAL": "NO", "OBJECTID": 19 }, "geometry": { "type": "Point", "coordinates": [ -79.484351607079617, 43.649061111105318 ] } },
{ "type": "Feature", "properties": { "ADDRESS_POINT_ID": 3809146, "ADDRESS_NUMBER": "2", "LINEAR_NAME_FULL": "Third St", "ADDRESS_FULL": "2 Third St", "POSTAL_CODE": "M5J 2A9", "MUNICIPALITY": "former Toronto", "CITY": "Toronto", "WARD": "Spadina-Fort York (10)", "PLACE_NAME": null, "GENERAL_USE_CODE": 100001, "CENTRELINE_ID": 3809145, "LO_NUM": 2, "LO_NUM_SUF": null, "HI_NUM": null, "HI_NUM_SUF": null, "LINEAR_NAME_ID": 9788, "X": null, "Y": null, "LONGITUDE": -79.353990742099995, "LATITUDE": 43.632059664700002, "ID": 22, "NAME": "Cappel's Custom Carts", "UNIT": null, "PHONE": "416-804-0571", "EMAIL": "mandrasca@gmail.com or butze@rogers.com", "RENTAL": "NO", "OBJECTID": 20 }, "geometry": { "type": "Point", "coordinates": [ -79.353987518924484, 43.632051081904919 ] } },
{ "type": "Feature", "properties": { "ADDRESS_POINT_ID": 5573726, "ADDRESS_NUMBER": "106", "LINEAR_NAME_FULL": "Harbord St", "ADDRESS_FULL": "106 Harbord St", "POSTAL_CODE": "M5S 1G6", "MUNICIPALITY": "former Toronto", "CITY": "Toronto", "WARD": "University-Rosedale (11)", "PLACE_NAME": null, "GENERAL_USE_CODE": 100001, "CENTRELINE_ID": 5573735, "LO_NUM": 106, "LO_NUM_SUF": null, "HI_NUM": null, "HI_NUM_SUF": null, "LINEAR_NAME_ID": 3605, "X": null, "Y": null, "LONGITUDE": -79.40366786109999, "LATITUDE": 43.663008501000007, "ID": 25, "NAME": "Chilango Cycles", "UNIT": null, "PHONE": "416-871-0863", "EMAIL": "chilangocycles@gmail.com", "RENTAL": "NO", "OBJECTID": 21 }, "geometry": { "type": "Point", "coordinates": [ -79.403664622875567, 43.662999915786727 ] } },
{ "type": "Feature", "properties": { "ADDRESS_POINT_ID": 11046952, "ADDRESS_NUMBER": "1", "LINEAR_NAME_FULL": "Howland Rd", "ADDRESS_FULL": "1 Howland Rd", "POSTAL_CODE": "M4K 2Z4", "MUNICIPALITY": "former Toronto", "CITY": "Toronto", "WARD": "Toronto-Danforth (14)", "PLACE_NAME": null, "GENERAL_USE_CODE": 115001, "CENTRELINE_ID": 14023458, "LO_NUM": 1, "LO_NUM_SUF": null, "HI_NUM": null, "HI_NUM_SUF": null, "LINEAR_NAME_ID": 3705, "X": null, "Y": null, "LONGITUDE": -79.346783644399991, "LATITUDE": 43.6668568053, "ID": 26, "NAME": "Cogs Cycle", "UNIT": null, "PHONE": "416-465-7677", "EMAIL": "cogscycle@bellnet.ca", "RENTAL": "NO", "OBJECTID": 22 }, "geometry": { "type": "Point", "coordinates": [ -79.346780415895239, 43.666848221065919 ] } },
{ "type": "Feature", "properties": { "ADDRESS_POINT_ID": 14187083, "ADDRESS_NUMBER": "761", "LINEAR_NAME_FULL": "Queen St W", "ADDRESS_FULL": "761 Queen St W", "POSTAL_CODE": "M6J 1G1", "MUNICIPALITY": "former Toronto", "CITY": "Toronto", "WARD": "Spadina-Fort York (10)", "PLACE_NAME": null, "GENERAL_USE_CODE": 115001, "CENTRELINE_ID": 1146191, "LO_NUM": 761, "LO_NUM_SUF": null, "HI_NUM": null, "HI_NUM_SUF": null, "LINEAR_NAME_ID": 4238, "X": null, "Y": null, "LONGITUDE": -79.407646991500002, "LATITUDE": 43.646276511899998, "ID": 27, "NAME": "Community Bicycle Network", "UNIT": "101", "PHONE": "416-504-2918", "EMAIL": "info@communitybicyclenetwork.org", "RENTAL": "NO", "OBJECTID": 23 }, "geometry": { "type": "Point", "coordinates": [ -79.407643748847889, 43.646267936489409 ] } },
{ "type": "Feature", "properties": { "ADDRESS_POINT_ID": 3154977, "ADDRESS_NUMBER": "2749", "LINEAR_NAME_FULL": "Lake Shore Blvd W", "ADDRESS_FULL": "2749 Lake Shore Blvd W", "POSTAL_CODE": "M8V 1H2", "MUNICIPALITY": "Etobicoke", "CITY": "Toronto", "WARD": "Etobicoke-Lakeshore (3)", "PLACE_NAME": null, "GENERAL_USE_CODE": 107005, "CENTRELINE_ID": 3154976, "LO_NUM": 2749, "LO_NUM_SUF": null, "HI_NUM": null, "HI_NUM_SUF": null, "LINEAR_NAME_ID": 1962, "X": null, "Y": null, "LONGITUDE": -79.498532869599998, "LATITUDE": 43.602046412900002, "ID": 29, "NAME": "Cycle Butik", "UNIT": null, "PHONE": "647-258-0012", "EMAIL": "sales@cyclebutik.com", "RENTAL": "NO", "OBJECTID": 24 }, "geometry": { "type": "Point", "coordinates": [ -79.498529609152257, 43.602037847969825 ] } },
{ "type": "Feature", "properties": { "ADDRESS_POINT_ID": 10576723, "ADDRESS_NUMBER": "926", "LINEAR_NAME_FULL": "College St", "ADDRESS_FULL": "926 College St", "POSTAL_CODE": "M6H 1A4", "MUNICIPALITY": "former Toronto", "CITY": "Toronto", "WARD": "Davenport (9)", "PLACE_NAME": null, "GENERAL_USE_CODE": 115001, "CENTRELINE_ID": 10576713, "LO_NUM": 926, "LO_NUM_SUF": null, "HI_NUM": null, "HI_NUM_SUF": null, "LINEAR_NAME_ID": 9765, "X": null, "Y": null, "LONGITUDE": -79.425822547300001, "LATITUDE": 43.653962380699994, "ID": 30, "NAME": "Cycle Couture", "UNIT": null, "PHONE": "647-342-1037", "EMAIL": "info@cyclecouture.ca", "RENTAL": "NO", "OBJECTID": 25 }, "geometry": { "type": "Point", "coordinates": [ -79.425819295720331, 43.653953801058641 ] } },
{ "type": "Feature", "properties": { "ADDRESS_POINT_ID": 11048077, "ADDRESS_NUMBER": "281", "LINEAR_NAME_FULL": "Danforth Ave", "ADDRESS_FULL": "281 Danforth Ave", "POSTAL_CODE": "M4K 1N2", "MUNICIPALITY": "former Toronto", "CITY": "Toronto", "WARD": "Toronto-Danforth (14)", "PLACE_NAME": null, "GENERAL_USE_CODE": 115001, "CENTRELINE_ID": 11048060, "LO_NUM": 281, "LO_NUM_SUF": null, "HI_NUM": null, "HI_NUM_SUF": null, "LINEAR_NAME_ID": 86, "X": null, "Y": null, "LONGITUDE": -79.354446862900005, "LATITUDE": 43.676866796599995, "ID": 31, "NAME": "Cyclemania", "UNIT": null, "PHONE": "416-466-0330", "EMAIL": "lubomirhoferica@gmail.com", "RENTAL": "NO", "OBJECTID": 26 }, "geometry": { "type": "Point", "coordinates": [ -79.354443640906254, 43.676858204742722 ] } },
{ "type": "Feature", "properties": { "ADDRESS_POINT_ID": 773046, "ADDRESS_NUMBER": "863", "LINEAR_NAME_FULL": "Bloor St W", "ADDRESS_FULL": "863 Bloor St W", "POSTAL_CODE": "M6G 1M4", "MUNICIPALITY": "former Toronto", "CITY": "Toronto", "WARD": "University-Rosedale (11)", "PLACE_NAME": null, "GENERAL_USE_CODE": 107010, "CENTRELINE_ID": 1143576, "LO_NUM": 863, "LO_NUM_SUF": null, "HI_NUM": null, "HI_NUM_SUF": null, "LINEAR_NAME_ID": 458, "X": null, "Y": null, "LONGITUDE": -79.424584588199991, "LATITUDE": 43.661973775299998, "ID": 32, "NAME": "Cyclemania", "UNIT": null, "PHONE": "416-533-0080", "EMAIL": "lubomirhoferica@gmail.com", "RENTAL": "NO", "OBJECTID": 27 }, "geometry": { "type": "Point", "coordinates": [ -79.424581342873196, 43.661965190746415 ] } },
{ "type": "Feature", "properties": { "ADDRESS_POINT_ID": 14209891, "ADDRESS_NUMBER": "1510", "LINEAR_NAME_FULL": "Danforth Ave", "ADDRESS_FULL": "1510 Danforth Ave", "POSTAL_CODE": "M4J 1N4", "MUNICIPALITY": "former Toronto", "CITY": "Toronto", "WARD": "Toronto-Danforth (14)", "PLACE_NAME": null, "GENERAL_USE_CODE": 115001, "CENTRELINE_ID": 7940321, "LO_NUM": 1510, "LO_NUM_SUF": null, "HI_NUM": null, "HI_NUM_SUF": null, "LINEAR_NAME_ID": 86, "X": null, "Y": null, "LONGITUDE": -79.325187224099992, "LATITUDE": 43.683205250699999, "ID": 34, "NAME": "Cyclepath", "UNIT": null, "PHONE": "416-463-5346", "EMAIL": "support@cyclepath.ca", "RENTAL": "YES", "OBJECTID": 28 }, "geometry": { "type": "Point", "coordinates": [ -79.325184007645177, 43.683196657702879 ] } },
{ "type": "Feature", "properties": { "ADDRESS_POINT_ID": 789357, "ADDRESS_NUMBER": "120", "LINEAR_NAME_FULL": "D'Arcy St", "ADDRESS_FULL": "120 D'Arcy St", "POSTAL_CODE": "M5T 1K3", "MUNICIPALITY": "former Toronto", "CITY": "Toronto", "WARD": "University-Rosedale (11)", "PLACE_NAME": null, "GENERAL_USE_CODE": 100001, "CENTRELINE_ID": 14020864, "LO_NUM": 120, "LO_NUM_SUF": null, "HI_NUM": null, "HI_NUM_SUF": null, "LINEAR_NAME_ID": 3262, "X": null, "Y": null, "LONGITUDE": -79.396934065899998, "LATITUDE": 43.654406748299998, "ID": 36, "NAME": "Cyclopedia", "UNIT": null, "PHONE": "416-268-5667", "EMAIL": "Cyclopedia@acanac.net", "RENTAL": "NO", "OBJECTID": 29 }, "geometry": { "type": "Point", "coordinates": [ -79.396930829900526, 43.654398169909598 ] } },
{ "type": "Feature", "properties": { "ADDRESS_POINT_ID": 9980656, "ADDRESS_NUMBER": "444", "LINEAR_NAME_FULL": "Parliament St", "ADDRESS_FULL": "444 Parliament St", "POSTAL_CODE": "M5A 3A2", "MUNICIPALITY": "former Toronto", "CITY": "Toronto", "WARD": "Toronto Centre (13)", "PLACE_NAME": null, "GENERAL_USE_CODE": 115001, "CENTRELINE_ID": 14023933, "LO_NUM": 444, "LO_NUM_SUF": null, "HI_NUM": null, "HI_NUM_SUF": null, "LINEAR_NAME_ID": 4162, "X": null, "Y": null, "LONGITUDE": -79.368012463300005, "LATITUDE": 43.663323472399995, "ID": 37, "NAME": "Cycle Solutions", "UNIT": null, "PHONE": "416-972-6948", "EMAIL": "downtown@cycle-solutions.com", "RENTAL": "NO", "OBJECTID": 30 }, "geometry": { "type": "Point", "coordinates": [ -79.368009235838983, 43.663314891396737 ] } },
{ "type": "Feature", "properties": { "ADDRESS_POINT_ID": 14208468, "ADDRESS_NUMBER": "615", "LINEAR_NAME_FULL": "Kingston Rd", "ADDRESS_FULL": "615 Kingston Rd", "POSTAL_CODE": "M4E 1R3", "MUNICIPALITY": "former Toronto", "CITY": "Toronto", "WARD": "Beaches-East York (19)", "PLACE_NAME": null, "GENERAL_USE_CODE": 107010, "CENTRELINE_ID": 20035842, "LO_NUM": 615, "LO_NUM_SUF": null, "HI_NUM": null, "HI_NUM_SUF": null, "LINEAR_NAME_ID": 3786, "X": null, "Y": null, "LONGITUDE": -79.298455026499994, "LATITUDE": 43.678526393799999, "ID": 38, "NAME": "Cycle Solutions", "UNIT": null, "PHONE": "416-691-0019", "EMAIL": "beaches@cycle-solutions.com", "RENTAL": "NO", "OBJECTID": 31 }, "geometry": { "type": "Point", "coordinates": [ -79.298451813439257, 43.678517802989305 ] } },
{ "type": "Feature", "properties": { "ADDRESS_POINT_ID": 991045, "ADDRESS_NUMBER": "555", "LINEAR_NAME_FULL": "Burnhamthorpe Rd", "ADDRESS_FULL": "555 Burnhamthorpe Rd", "POSTAL_CODE": "M9C 2Y3", "MUNICIPALITY": "Etobicoke", "CITY": "Toronto", "WARD": "Etobicoke Centre (2)", "PLACE_NAME": null, "GENERAL_USE_CODE": 104008, "CENTRELINE_ID": 911713, "LO_NUM": 555, "LO_NUM_SUF": null, "HI_NUM": null, "HI_NUM_SUF": null, "LINEAR_NAME_ID": 1266, "X": null, "Y": null, "LONGITUDE": -79.568026654199997, "LATITUDE": 43.644652181600001, "ID": 39, "NAME": "Daial Cycle and Sports", "UNIT": "107", "PHONE": "416-620-6900", "EMAIL": null, "RENTAL": "NO", "OBJECTID": 32 }, "geometry": { "type": "Point", "coordinates": [ -79.568023362333051, 43.644643605785866 ] } },
{ "type": "Feature", "properties": { "ADDRESS_POINT_ID": 782701, "ADDRESS_NUMBER": "254", "LINEAR_NAME_FULL": "Christie St", "ADDRESS_FULL": "254 Christie St", "POSTAL_CODE": "M6G 3B8", "MUNICIPALITY": "former Toronto", "CITY": "Toronto", "WARD": "University-Rosedale (11)", "PLACE_NAME": null, "GENERAL_USE_CODE": 107010, "CENTRELINE_ID": 14012374, "LO_NUM": 254, "LO_NUM_SUF": null, "HI_NUM": null, "HI_NUM_SUF": null, "LINEAR_NAME_ID": 3165, "X": null, "Y": null, "LONGITUDE": -79.421385600799994, "LATITUDE": 43.670592651999996, "ID": 40, "NAME": "Dave Fix My Bike", "UNIT": null, "PHONE": "416-944-2453", "EMAIL": "davidlavin777@gmail.com", "RENTAL": "NO", "OBJECTID": 33 }, "geometry": { "type": "Point", "coordinates": [ -79.421382354345354, 43.67058406478413 ] } },
{ "type": "Feature", "properties": { "ADDRESS_POINT_ID": 30007674, "ADDRESS_NUMBER": "1894", "LINEAR_NAME_FULL": "Lawrence Ave E", "ADDRESS_FULL": "1894 Lawrence Ave E", "POSTAL_CODE": "M1R 2Y5", "MUNICIPALITY": "Scarborough", "CITY": "Toronto", "WARD": "Scarborough Centre (21)", "PLACE_NAME": null, "GENERAL_USE_CODE": 112001, "CENTRELINE_ID": 110485, "LO_NUM": 1894, "LO_NUM_SUF": null, "HI_NUM": null, "HI_NUM_SUF": null, "LINEAR_NAME_ID": 3828, "X": null, "Y": null, "LONGITUDE": -79.301377477800003, "LATITUDE": 43.744367204200003, "ID": 42, "NAME": "D'Ornellas Bike Shop", "UNIT": null, "PHONE": "416-752-3838", "EMAIL": "info@dornellas.com", "RENTAL": "NO", "OBJECTID": 34 }, "geometry": { "type": "Point", "coordinates": [ -79.301374266796628, 43.744358600570358 ] } },
{ "type": "Feature", "properties": { "ADDRESS_POINT_ID": 30043278, "ADDRESS_NUMBER": "625", "LINEAR_NAME_FULL": "Queen St W", "ADDRESS_FULL": "625 Queen St W", "POSTAL_CODE": "M5V 2B7", "MUNICIPALITY": "former Toronto", "CITY": "Toronto", "WARD": "Spadina-Fort York (10)", "PLACE_NAME": null, "GENERAL_USE_CODE": 100001, "CENTRELINE_ID": 10475569, "LO_NUM": 625, "LO_NUM_SUF": null, "HI_NUM": null, "HI_NUM_SUF": null, "LINEAR_NAME_ID": 4238, "X": null, "Y": null, "LONGITUDE": -79.402921673999998, "LATITUDE": 43.647240785000001, "ID": 43, "NAME": "Duke's Cycle", "UNIT": null, "PHONE": "416-504-6138", "EMAIL": "info@dukescycle.ca", "RENTAL": "NO", "OBJECTID": 35 }, "geometry": { "type": "Point", "coordinates": [ -79.402921675096962, 43.647240789260806 ] } },
{ "type": "Feature", "properties": { "ADDRESS_POINT_ID": 8731121, "ADDRESS_NUMBER": "3876", "LINEAR_NAME_FULL": "Bloor St W", "ADDRESS_FULL": "3876 Bloor St W", "POSTAL_CODE": "M9B 1L3", "MUNICIPALITY": "Etobicoke", "CITY": "Toronto", "WARD": "Etobicoke Centre (2)", "PLACE_NAME": null, "GENERAL_USE_CODE": 115001, "CENTRELINE_ID": 8731116, "LO_NUM": 3876, "LO_NUM_SUF": null, "HI_NUM": null, "HI_NUM_SUF": null, "LINEAR_NAME_ID": 458, "X": null, "Y": null, "LONGITUDE": -79.541818826099998, "LATITUDE": 43.640717107100002, "ID": 44, "NAME": "Duke's Sports", "UNIT": null, "PHONE": "416-233-2011", "EMAIL": "Dukes@SourceForSports.ca", "RENTAL": "NO", "OBJECTID": 36 }, "geometry": { "type": "Point", "coordinates": [ -79.541815543841778, 43.640708536135634 ] } },
{ "type": "Feature", "properties": { "ADDRESS_POINT_ID": 7986312, "ADDRESS_NUMBER": "521", "LINEAR_NAME_FULL": "Annette St", "ADDRESS_FULL": "521 Annette St", "POSTAL_CODE": "M6P 1S1", "MUNICIPALITY": "former Toronto", "CITY": "Toronto", "WARD": "Parkdale-High Park (4)", "PLACE_NAME": null, "GENERAL_USE_CODE": 115001, "CENTRELINE_ID": 7986289, "LO_NUM": 521, "LO_NUM_SUF": null, "HI_NUM": null, "HI_NUM_SUF": null, "LINEAR_NAME_ID": 2890, "X": null, "Y": null, "LONGITUDE": -79.479695893900001, "LATITUDE": 43.659921045699996, "ID": 46, "NAME": "Espresso Cycles", "UNIT": null, "PHONE": "647-344-2669", "EMAIL": "victor@expressocycles.ca", "RENTAL": "NO", "OBJECTID": 37 }, "geometry": { "type": "Point", "coordinates": [ -79.479692627470001, 43.659912465759305 ] } },
{ "type": "Feature", "properties": { "ADDRESS_POINT_ID": 8351143, "ADDRESS_NUMBER": "47", "LINEAR_NAME_FULL": "Front St E", "ADDRESS_FULL": "47 Front St E", "POSTAL_CODE": "M5E 1B3", "MUNICIPALITY": "former Toronto", "CITY": "Toronto", "WARD": "Toronto Centre (13)", "PLACE_NAME": null, "GENERAL_USE_CODE": 115001, "CENTRELINE_ID": 14254949, "LO_NUM": 47, "LO_NUM_SUF": null, "HI_NUM": null, "HI_NUM_SUF": null, "LINEAR_NAME_ID": 3471, "X": null, "Y": null, "LONGITUDE": -79.374367146599994, "LATITUDE": 43.647931531499999, "ID": 47, "NAME": "Europe Bound", "UNIT": null, "PHONE": "416-601-1990", "EMAIL": "europeboundsales@gmail.com", "RENTAL": "NO", "OBJECTID": 38 }, "geometry": { "type": "Point", "coordinates": [ -79.374363910095127, 43.647922953257847 ] } },
{ "type": "Feature", "properties": { "ADDRESS_POINT_ID": 7940146, "ADDRESS_NUMBER": "1374", "LINEAR_NAME_FULL": "Danforth Ave", "ADDRESS_FULL": "1374 Danforth Ave", "POSTAL_CODE": "M4J 1M9", "MUNICIPALITY": "former Toronto", "CITY": "Toronto", "WARD": "Toronto-Danforth (14)", "PLACE_NAME": null, "GENERAL_USE_CODE": 115001, "CENTRELINE_ID": 11272165, "LO_NUM": 1374, "LO_NUM_SUF": null, "HI_NUM": null, "HI_NUM_SUF": null, "LINEAR_NAME_ID": 86, "X": null, "Y": null, "LONGITUDE": -79.328357646400008, "LATITUDE": 43.6826129986, "ID": 49, "NAME": "Ezriders (Electric Bicycles)", "UNIT": null, "PHONE": "416 461 8989", "EMAIL": "greg@eziders.ca", "RENTAL": "NO", "OBJECTID": 39 }, "geometry": { "type": "Point", "coordinates": [ -79.328354429944326, 43.682604405575333 ] } },
{ "type": "Feature", "properties": { "ADDRESS_POINT_ID": 8416900, "ADDRESS_NUMBER": "678", "LINEAR_NAME_FULL": "Bloor St W", "ADDRESS_FULL": "678 Bloor St W", "POSTAL_CODE": "M6G 1L2", "MUNICIPALITY": "former Toronto", "CITY": "Toronto", "WARD": "University-Rosedale (11)", "PLACE_NAME": null, "GENERAL_USE_CODE": 115001, "CENTRELINE_ID": 8416891, "LO_NUM": 678, "LO_NUM_SUF": null, "HI_NUM": null, "HI_NUM_SUF": null, "LINEAR_NAME_ID": 458, "X": null, "Y": null, "LONGITUDE": -79.416709906700007, "LATITUDE": 43.664129471800003, "ID": 51, "NAME": "Gallant Bicycles", "UNIT": null, "PHONE": "416-572-2593", "EMAIL": "tony@gallantbicycles.com", "RENTAL": "NO", "OBJECTID": 40 }, "geometry": { "type": "Point", "coordinates": [ -79.41670666438111, 43.664120892097024 ] } },
{ "type": "Feature", "properties": { "ADDRESS_POINT_ID": 9340558, "ADDRESS_NUMBER": "1073", "LINEAR_NAME_FULL": "College St", "ADDRESS_FULL": "1073 College St", "POSTAL_CODE": "M6H 1B2", "MUNICIPALITY": "former Toronto", "CITY": "Toronto", "WARD": "Davenport (9)", "PLACE_NAME": null, "GENERAL_USE_CODE": 115001, "CENTRELINE_ID": 9340552, "LO_NUM": 1073, "LO_NUM_SUF": null, "HI_NUM": null, "HI_NUM_SUF": null, "LINEAR_NAME_ID": 9765, "X": null, "Y": null, "LONGITUDE": -79.431488815799995, "LATITUDE": 43.65263276, "ID": 55, "NAME": "Hoopdriver Bicycles", "UNIT": null, "PHONE": "647-344-9120", "EMAIL": "info@hoopdriver.ca", "RENTAL": "NO", "OBJECTID": 41 }, "geometry": { "type": "Point", "coordinates": [ -79.431485572994021, 43.652624182674835 ] } },
{ "type": "Feature", "properties": { "ADDRESS_POINT_ID": 9668134, "ADDRESS_NUMBER": "79", "LINEAR_NAME_FULL": "Wingold Ave", "ADDRESS_FULL": "79 Wingold Ave", "POSTAL_CODE": "M6B 1P8", "MUNICIPALITY": "North York", "CITY": "Toronto", "WARD": "Eglinton-Lawrence (8)", "PLACE_NAME": null, "GENERAL_USE_CODE": 115001, "CENTRELINE_ID": 9668079, "LO_NUM": 79, "LO_NUM_SUF": null, "HI_NUM": null, "HI_NUM_SUF": null, "LINEAR_NAME_ID": 7103, "X": null, "Y": null, "LONGITUDE": -79.457567941000008, "LATITUDE": 43.702181761599995, "ID": 56, "NAME": "Jamis Bicycles Canada RB inc", "UNIT": "10", "PHONE": "416-787-4998", "EMAIL": "rb@rbinc-sports.com", "RENTAL": "NO", "OBJECTID": 42 }, "geometry": { "type": "Point", "coordinates": [ -79.457564675834689, 43.702173173214184 ] } },
{ "type": "Feature", "properties": { "ADDRESS_POINT_ID": 790920, "ADDRESS_NUMBER": "1144", "LINEAR_NAME_FULL": "Davenport Rd", "ADDRESS_FULL": "1144 Davenport Rd", "POSTAL_CODE": "M6G 2C6", "MUNICIPALITY": "former Toronto", "CITY": "Toronto", "WARD": "Davenport (9)", "PLACE_NAME": null, "GENERAL_USE_CODE": 107010, "CENTRELINE_ID": 1141385, "LO_NUM": 1144, "LO_NUM_SUF": null, "HI_NUM": null, "HI_NUM_SUF": null, "LINEAR_NAME_ID": 3269, "X": null, "Y": null, "LONGITUDE": -79.431229195, "LATITUDE": 43.674882823800004, "ID": 57, "NAME": "L & J Cycle", "UNIT": null, "PHONE": "416-656-5293", "EMAIL": null, "RENTAL": "NO", "OBJECTID": 43 }, "geometry": { "type": "Point", "coordinates": [ -79.431225948199696, 43.674874240758065 ] } },
{ "type": "Feature", "properties": { "ADDRESS_POINT_ID": 54822, "ADDRESS_NUMBER": "1180", "LINEAR_NAME_FULL": "Castlefield Ave", "ADDRESS_FULL": "1180 Castlefield Ave", "POSTAL_CODE": "M6B 1G1", "MUNICIPALITY": "York", "CITY": "Toronto", "WARD": "Eglinton-Lawrence (8)", "PLACE_NAME": null, "GENERAL_USE_CODE": 113001, "CENTRELINE_ID": 7465, "LO_NUM": 1180, "LO_NUM_SUF": null, "HI_NUM": null, "HI_NUM_SUF": null, "LINEAR_NAME_ID": 488, "X": null, "Y": null, "LONGITUDE": -79.455211425900004, "LATITUDE": 43.700250705800002, "ID": 58, "NAME": "La Bicicletta", "UNIT": null, "PHONE": "416-762-2679 or 1-800-489-8430", "EMAIL": "info@labicicletta.com", "RENTAL": "NO", "OBJECTID": 44 }, "geometry": { "type": "Point", "coordinates": [ -79.455208159180771, 43.700242120437402 ] } },
{ "type": "Feature", "properties": { "ADDRESS_POINT_ID": 8312916, "ADDRESS_NUMBER": "1611", "LINEAR_NAME_FULL": "Dupont St", "ADDRESS_FULL": "1611 Dupont St", "POSTAL_CODE": "M6P 3S8", "MUNICIPALITY": "former Toronto", "CITY": "Toronto", "WARD": "Davenport (9)", "PLACE_NAME": null, "GENERAL_USE_CODE": 115001, "CENTRELINE_ID": 8312902, "LO_NUM": 1611, "LO_NUM_SUF": null, "HI_NUM": null, "HI_NUM_SUF": null, "LINEAR_NAME_ID": 3343, "X": null, "Y": null, "LONGITUDE": -79.454708523199997, "LATITUDE": 43.664722705100004, "ID": 59, "NAME": "La Carrera Cycles", "UNIT": null, "PHONE": "416-538-1203", "EMAIL": null, "RENTAL": "NO", "OBJECTID": 45 }, "geometry": { "type": "Point", "coordinates": [ -79.454705261692482, 43.664714128030937 ] } },
{ "type": "Feature", "properties": { "ADDRESS_POINT_ID": 7552950, "ADDRESS_NUMBER": "127", "LINEAR_NAME_FULL": "Ossington Ave", "ADDRESS_FULL": "127 Ossington Ave", "POSTAL_CODE": "M6J 2Z6", "MUNICIPALITY": "former Toronto", "CITY": "Toronto", "WARD": "Spadina-Fort York (10)", "PLACE_NAME": null, "GENERAL_USE_CODE": 107010, "CENTRELINE_ID": 14018171, "LO_NUM": 127, "LO_NUM_SUF": null, "HI_NUM": null, "HI_NUM_SUF": null, "LINEAR_NAME_ID": 4125, "X": null, "Y": null, "LONGITUDE": -79.4195702958, "LATITUDE": 43.647102631800003, "ID": 87, "NAME": "The Pedal Stop", "UNIT": null, "PHONE": "647-352-3240", "EMAIL": null, "RENTAL": "NO", "OBJECTID": 46 }, "geometry": { "type": "Point", "coordinates": [ -79.419567053183101, 43.647094055612328 ] } },
{ "type": "Feature", "properties": { "ADDRESS_POINT_ID": 9468254, "ADDRESS_NUMBER": "290", "LINEAR_NAME_FULL": "Harbord St", "ADDRESS_FULL": "290 Harbord St", "POSTAL_CODE": null, "MUNICIPALITY": "former Toronto", "CITY": "Toronto", "WARD": "University-Rosedale (11)", "PLACE_NAME": null, "GENERAL_USE_CODE": 115001, "CENTRELINE_ID": 14019957, "LO_NUM": 290, "LO_NUM_SUF": null, "HI_NUM": null, "HI_NUM_SUF": null, "LINEAR_NAME_ID": 3605, "X": null, "Y": null, "LONGITUDE": -79.415071501100002, "LATITUDE": 43.660565549399998, "ID": 88, "NAME": "The Bike Joint", "UNIT": null, "PHONE": "416-532-6392", "EMAIL": "service@thebikejoint.com", "RENTAL": "NO", "OBJECTID": 47 }, "geometry": { "type": "Point", "coordinates": [ -79.415068262901258, 43.660556964411946 ] } },
{ "type": "Feature", "properties": { "ADDRESS_POINT_ID": 30058592, "ADDRESS_NUMBER": "355", "LINEAR_NAME_FULL": "Lakeshore Ave", "ADDRESS_FULL": "355 Lakeshore Ave", "POSTAL_CODE": null, "MUNICIPALITY": "former Toronto", "CITY": "Toronto", "WARD": "Spadina-Fort York (10)", "PLACE_NAME": "TORONTO ISLAND BICYCLE RENTAL", "GENERAL_USE_CODE": 104002, "CENTRELINE_ID": 1147814, "LO_NUM": 355, "LO_NUM_SUF": null, "HI_NUM": null, "HI_NUM_SUF": null, "LINEAR_NAME_ID": 3802, "X": null, "Y": null, "LONGITUDE": -79.371762198, "LATITUDE": 43.617143002, "ID": 89, "NAME": "Toronto Island Bicycle Rental", "UNIT": null, "PHONE": "416-203-0009", "EMAIL": null, "RENTAL": "YES", "OBJECTID": 48 }, "geometry": { "type": "Point", "coordinates": [ -79.371762192077483, 43.61714300310782 ] } },
{ "type": "Feature", "properties": { "ADDRESS_POINT_ID": 7274879, "ADDRESS_NUMBER": "2063", "LINEAR_NAME_FULL": "Yonge St", "ADDRESS_FULL": "2063 Yonge St", "POSTAL_CODE": "M4S 2A2", "MUNICIPALITY": "former Toronto", "CITY": "Toronto", "WARD": "Toronto-St. Paul's (12)", "PLACE_NAME": null, "GENERAL_USE_CODE": 107010, "CENTRELINE_ID": 7274839, "LO_NUM": 2063, "LO_NUM_SUF": null, "HI_NUM": null, "HI_NUM_SUF": null, "LINEAR_NAME_ID": 4733, "X": null, "Y": null, "LONGITUDE": -79.397054375400003, "LATITUDE": 43.702282900200004, "ID": 90, "NAME": "Trek Bicycle Store of Toronto", "UNIT": null, "PHONE": "416-481-8735", "EMAIL": "info@trektoronto.ca", "RENTAL": "NO", "OBJECTID": 49 }, "geometry": { "type": "Point", "coordinates": [ -79.397051133884986, 43.702274309073417 ] } },
{ "type": "Feature", "properties": { "ADDRESS_POINT_ID": 8041184, "ADDRESS_NUMBER": "180", "LINEAR_NAME_FULL": "John St", "ADDRESS_FULL": "180 John St", "POSTAL_CODE": "M5T 1X5", "MUNICIPALITY": "former Toronto", "CITY": "Toronto", "WARD": "Spadina-Fort York (10)", "PLACE_NAME": null, "GENERAL_USE_CODE": 113001, "CENTRELINE_ID": 14676282, "LO_NUM": 180, "LO_NUM_SUF": null, "HI_NUM": null, "HI_NUM_SUF": null, "LINEAR_NAME_ID": 9747, "X": null, "Y": null, "LONGITUDE": -79.391755911600001, "LATITUDE": 43.650692657900002, "ID": 91, "NAME": "Urbane Cyclist", "UNIT": null, "PHONE": "416-979-9733", "EMAIL": "ucycle@ucycle.com", "RENTAL": "NO", "OBJECTID": 50 }, "geometry": { "type": "Point", "coordinates": [ -79.391752670600809, 43.650684077618237 ] } },
{ "type": "Feature", "properties": { "ADDRESS_POINT_ID": 8417250, "ADDRESS_NUMBER": "1592", "LINEAR_NAME_FULL": "Queen St E", "ADDRESS_FULL": "1592 Queen St E", "POSTAL_CODE": "M4L 1G1", "MUNICIPALITY": "former Toronto", "CITY": "Toronto", "WARD": "Toronto-Danforth (14)", "PLACE_NAME": null, "GENERAL_USE_CODE": 115001, "CENTRELINE_ID": 8417235, "LO_NUM": 1592, "LO_NUM_SUF": null, "HI_NUM": null, "HI_NUM_SUF": null, "LINEAR_NAME_ID": 4237, "X": null, "Y": null, "LONGITUDE": -79.317914983199998, "LATITUDE": 43.666223237399997, "ID": 92, "NAME": "Velotique", "UNIT": null, "PHONE": "416-466-3171", "EMAIL": "saul@velotique.com", "RENTAL": "NO", "OBJECTID": 51 }, "geometry": { "type": "Point", "coordinates": [ -79.31791177089346, 43.666214646834035 ] } },
{ "type": "Feature", "properties": { "ADDRESS_POINT_ID": 8594853, "ADDRESS_NUMBER": "1040", "LINEAR_NAME_FULL": "Eglinton Ave W", "ADDRESS_FULL": "1040 Eglinton Ave W", "POSTAL_CODE": "M6C 2C5", "MUNICIPALITY": "former Toronto", "CITY": "Toronto", "WARD": "Eglinton-Lawrence (8)", "PLACE_NAME": null, "GENERAL_USE_CODE": 115001, "CENTRELINE_ID": 8594649, "LO_NUM": 1040, "LO_NUM_SUF": null, "HI_NUM": null, "HI_NUM_SUF": null, "LINEAR_NAME_ID": 571, "X": null, "Y": null, "LONGITUDE": -79.430309546399997, "LATITUDE": 43.700184215299998, "ID": 93, "NAME": "Vitess", "UNIT": null, "PHONE": "416-503-8987", "EMAIL": "testdrive@vitess.com", "RENTAL": "NO", "OBJECTID": 52 }, "geometry": { "type": "Point", "coordinates": [ -79.430306287801955, 43.700175624346535 ] } },
{ "type": "Feature", "properties": { "ADDRESS_POINT_ID": 855697, "ADDRESS_NUMBER": "890", "LINEAR_NAME_FULL": "Queen St E", "ADDRESS_FULL": "890 Queen St E", "POSTAL_CODE": "M4M 1J3", "MUNICIPALITY": "former Toronto", "CITY": "Toronto", "WARD": "Toronto-Danforth (14)", "PLACE_NAME": null, "GENERAL_USE_CODE": 107010, "CENTRELINE_ID": 1143652, "LO_NUM": 890, "LO_NUM_SUF": null, "HI_NUM": null, "HI_NUM_SUF": null, "LINEAR_NAME_ID": 4237, "X": null, "Y": null, "LONGITUDE": -79.343283621499992, "LATITUDE": 43.660551075699999, "ID": 94, "NAME": "Warren Cycle Works", "UNIT": null, "PHONE": "416-466-6958", "EMAIL": null, "RENTAL": "NO", "OBJECTID": 53 }, "geometry": { "type": "Point", "coordinates": [ -79.343280396924314, 43.660542494150036 ] } },
{ "type": "Feature", "properties": { "ADDRESS_POINT_ID": 860888, "ADDRESS_NUMBER": "213", "LINEAR_NAME_FULL": "Roncesvalles Ave", "ADDRESS_FULL": "213 Roncesvalles Ave", "POSTAL_CODE": "M6R 2L6", "MUNICIPALITY": "former Toronto", "CITY": "Toronto", "WARD": "Parkdale-High Park (4)", "PLACE_NAME": null, "GENERAL_USE_CODE": 107010, "CENTRELINE_ID": 1146413, "LO_NUM": 213, "LO_NUM_SUF": null, "HI_NUM": null, "HI_NUM_SUF": null, "LINEAR_NAME_ID": 4310, "X": null, "Y": null, "LONGITUDE": -79.448542113800002, "LATITUDE": 43.645655549799997, "ID": 95, "NAME": "West Side Cycle", "UNIT": null, "PHONE": "416-531-4648", "EMAIL": "westsidecycle@rogers.com", "RENTAL": "NO", "OBJECTID": 54 }, "geometry": { "type": "Point", "coordinates": [ -79.448538858851521, 43.645646975600606 ] } },
{ "type": "Feature", "properties": { "ADDRESS_POINT_ID": 13970096, "ADDRESS_NUMBER": "249", "LINEAR_NAME_FULL": "Queens Quay W", "ADDRESS_FULL": "249 Queens Quay W", "POSTAL_CODE": "M5J 2N5", "MUNICIPALITY": "former Toronto", "CITY": "Toronto", "WARD": "Spadina-Fort York (10)", "PLACE_NAME": null, "GENERAL_USE_CODE": 115001, "CENTRELINE_ID": 13969944, "LO_NUM": 249, "LO_NUM_SUF": null, "HI_NUM": null, "HI_NUM_SUF": null, "LINEAR_NAME_ID": 4244, "X": null, "Y": null, "LONGITUDE": -79.385714454099997, "LATITUDE": 43.638658593100004, "ID": 96, "NAME": "Wheels Excitement Inc.", "UNIT": "106", "PHONE": "416-260-9000", "EMAIL": "info@wheelexcitment.com", "RENTAL": "YES", "OBJECTID": 55 }, "geometry": { "type": "Point", "coordinates": [ -79.385711226165981, 43.638650009245616 ] } },
{ "type": "Feature", "properties": { "ADDRESS_POINT_ID": 10250097, "ADDRESS_NUMBER": "2007", "LINEAR_NAME_FULL": "Bloor St W", "ADDRESS_FULL": "2007 Bloor St W", "POSTAL_CODE": "M6S 1M5", "MUNICIPALITY": "former Toronto", "CITY": "Toronto", "WARD": "Parkdale-High Park (4)", "PLACE_NAME": null, "GENERAL_USE_CODE": 115001, "CENTRELINE_ID": 10250099, "LO_NUM": 2007, "LO_NUM_SUF": null, "HI_NUM": null, "HI_NUM_SUF": null, "LINEAR_NAME_ID": 458, "X": null, "Y": null, "LONGITUDE": -79.471919706199998, "LATITUDE": 43.651831156499995, "ID": 97, "NAME": "Wheels of Bloor", "UNIT": null, "PHONE": "416-762-9119", "EMAIL": "wheelsofbloor@bellnet.ca", "RENTAL": "NO", "OBJECTID": 56 }, "geometry": { "type": "Point", "coordinates": [ -79.471916443773765, 43.651822582486837 ] } },
{ "type": "Feature", "properties": { "ADDRESS_POINT_ID": 57457, "ADDRESS_NUMBER": "2055", "LINEAR_NAME_FULL": "Dufferin St", "ADDRESS_FULL": "2055 Dufferin St", "POSTAL_CODE": "M6E 3R3", "MUNICIPALITY": "York", "CITY": "Toronto", "WARD": "Toronto-St. Paul's (12)", "PLACE_NAME": null, "GENERAL_USE_CODE": 107010, "CENTRELINE_ID": 14072115, "LO_NUM": 2055, "LO_NUM_SUF": null, "HI_NUM": null, "HI_NUM_SUF": null, "LINEAR_NAME_ID": 557, "X": null, "Y": null, "LONGITUDE": -79.446270691599992, "LATITUDE": 43.686754864899996, "ID": 98, "NAME": "ZM Cycle & Fitness", "UNIT": null, "PHONE": "416-652-0080", "EMAIL": "zmcyclefitness@bellnet.ca", "RENTAL": "NO", "OBJECTID": 57 }, "geometry": { "type": "Point", "coordinates": [ -79.446267437601421, 43.686746283280293 ] } },
{ "type": "Feature", "properties": { "ADDRESS_POINT_ID": 14228197, "ADDRESS_NUMBER": "625", "LINEAR_NAME_FULL": "St Clair Ave W", "ADDRESS_FULL": "625 St Clair Ave W", "POSTAL_CODE": "M6C 1A7", "MUNICIPALITY": "former Toronto", "CITY": "Toronto", "WARD": "Toronto-St. Paul's (12)", "PLACE_NAME": null, "GENERAL_USE_CODE": 107010, "CENTRELINE_ID": 1140115, "LO_NUM": 625, "LO_NUM_SUF": null, "HI_NUM": null, "HI_NUM_SUF": null, "LINEAR_NAME_ID": 890, "X": null, "Y": null, "LONGITUDE": -79.423601392700007, "LATITUDE": 43.681848412100003, "ID": 7, "NAME": "Bicycle at St.Clair Inc.", "UNIT": null, "PHONE": "416-654-6187", "EMAIL": "bicyclesatstclair@gmail.com", "RENTAL": "NO", "OBJECTID": 58 }, "geometry": { "type": "Point", "coordinates": [ -79.423598143639239, 43.681839827708153 ] } },
{ "type": "Feature", "properties": { "ADDRESS_POINT_ID": 9340728, "ADDRESS_NUMBER": "1639B", "LINEAR_NAME_FULL": "Bayview Ave", "ADDRESS_FULL": "1639B Bayview Ave", "POSTAL_CODE": "M4G 3B5", "MUNICIPALITY": "East York", "CITY": "Toronto", "WARD": "Don Valley West (15)", "PLACE_NAME": null, "GENERAL_USE_CODE": 115001, "CENTRELINE_ID": 9340683, "LO_NUM": 1639, "LO_NUM_SUF": "B", "HI_NUM": null, "HI_NUM_SUF": null, "LINEAR_NAME_ID": 24, "X": null, "Y": null, "LONGITUDE": -79.375261952299994, "LATITUDE": 43.7069022445, "ID": 50, "NAME": "Flying Wheels", "UNIT": null, "PHONE": "416-487-5601", "EMAIL": "flyingwheels@yahoo.ca", "RENTAL": "NO", "OBJECTID": 59 }, "geometry": { "type": "Point", "coordinates": [ -79.375258716486172, 43.706893652818444 ] } },
{ "type": "Feature", "properties": { "ADDRESS_POINT_ID": 773263, "ADDRESS_NUMBER": "1222", "LINEAR_NAME_FULL": "Bloor St W", "ADDRESS_FULL": "1222 Bloor St W", "POSTAL_CODE": "M6H 1N3", "MUNICIPALITY": "former Toronto", "CITY": "Toronto", "WARD": "Davenport (9)", "PLACE_NAME": null, "GENERAL_USE_CODE": 112001, "CENTRELINE_ID": 1144052, "LO_NUM": 1222, "LO_NUM_SUF": null, "HI_NUM": null, "HI_NUM_SUF": null, "LINEAR_NAME_ID": 458, "X": null, "Y": null, "LONGITUDE": -79.439233229500005, "LATITUDE": 43.659310468100003, "ID": 19, "NAME": "Broadway Cycle", "UNIT": null, "PHONE": "416-531-1028", "EMAIL": "broadwaycycle@rogers.com", "RENTAL": "NO", "OBJECTID": 60 }, "geometry": { "type": "Point", "coordinates": [ -79.439229983732488, 43.659301885447789 ] } },
{ "type": "Feature", "properties": { "ADDRESS_POINT_ID": 887911, "ADDRESS_NUMBER": "2106", "LINEAR_NAME_FULL": "Yonge St", "ADDRESS_FULL": "2106 Yonge St", "POSTAL_CODE": "M4S 2A5", "MUNICIPALITY": "former Toronto", "CITY": "Toronto", "WARD": "Toronto-St. Paul's (12)", "PLACE_NAME": null, "GENERAL_USE_CODE": 107010, "CENTRELINE_ID": 1138594, "LO_NUM": 2106, "LO_NUM_SUF": null, "HI_NUM": null, "HI_NUM_SUF": null, "LINEAR_NAME_ID": 4733, "X": null, "Y": null, "LONGITUDE": -79.397929865400002, "LATITUDE": 43.702754516400006, "ID": 35, "NAME": "Cyclepath", "UNIT": null, "PHONE": "416-487-1717", "EMAIL": "mike@cyclepathtoronto.com", "RENTAL": "YES", "OBJECTID": 61 }, "geometry": { "type": "Point", "coordinates": [ -79.397926619643357, 43.702745924077512 ] } },
{ "type": "Feature", "properties": { "ADDRESS_POINT_ID": 14244599, "ADDRESS_NUMBER": "383", "LINEAR_NAME_FULL": "King St W", "ADDRESS_FULL": "383 King St W", "POSTAL_CODE": "M5V 1K1", "MUNICIPALITY": "former Toronto", "CITY": "Toronto", "WARD": "Spadina-Fort York (10)", "PLACE_NAME": null, "GENERAL_USE_CODE": 107010, "CENTRELINE_ID": 10222696, "LO_NUM": 383, "LO_NUM_SUF": null, "HI_NUM": null, "HI_NUM_SUF": null, "LINEAR_NAME_ID": 3780, "X": null, "Y": null, "LONGITUDE": -79.39334281, "LATITUDE": 43.645644388000001, "ID": 48, "NAME": "Europe Bound", "UNIT": null, "PHONE": "416-205-9992", "EMAIL": "europeboundsales@gmail.com", "RENTAL": "NO", "OBJECTID": 62 }, "geometry": { "type": "Point", "coordinates": [ -79.393342813404189, 43.64564439436348 ] } },
{ "type": "Feature", "properties": { "ADDRESS_POINT_ID": 797220, "ADDRESS_NUMBER": "2170", "LINEAR_NAME_FULL": "Dundas St W", "ADDRESS_FULL": "2170 Dundas St W", "POSTAL_CODE": "M6R 1X3", "MUNICIPALITY": "former Toronto", "CITY": "Toronto", "WARD": "Parkdale-High Park (4)", "PLACE_NAME": null, "GENERAL_USE_CODE": 107010, "CENTRELINE_ID": 1145060, "LO_NUM": 2170, "LO_NUM_SUF": null, "HI_NUM": null, "HI_NUM_SUF": null, "LINEAR_NAME_ID": 558, "X": null, "Y": null, "LONGITUDE": -79.450458705800003, "LATITUDE": 43.653427577200006, "ID": 64, "NAME": "Mojo Cycles", "UNIT": null, "PHONE": "416-649-7696", "EMAIL": "sales@mojocycles.ca", "RENTAL": "NO", "OBJECTID": 63 }, "geometry": { "type": "Point", "coordinates": [ -79.450455446144261, 43.653418995594862 ] } },
{ "type": "Feature", "properties": { "ADDRESS_POINT_ID": 17494, "ADDRESS_NUMBER": "550", "LINEAR_NAME_FULL": "Bayview Ave", "ADDRESS_FULL": "550 Bayview Ave", "POSTAL_CODE": "M4W 3X8", "MUNICIPALITY": "East York", "CITY": "Toronto", "WARD": "University-Rosedale (11)", "PLACE_NAME": null, "GENERAL_USE_CODE": 113001, "CENTRELINE_ID": 30040116, "LO_NUM": 550, "LO_NUM_SUF": null, "HI_NUM": null, "HI_NUM_SUF": null, "LINEAR_NAME_ID": 24, "X": null, "Y": null, "LONGITUDE": -79.365627973000002, "LATITUDE": 43.683783348, "ID": 14, "NAME": "Bike Works", "UNIT": null, "PHONE": "416-596-7670", "EMAIL": "bikeworks@evergreen.ca", "RENTAL": "YES", "OBJECTID": 64 }, "geometry": { "type": "Point", "coordinates": [ -79.365627972002784, 43.683783350044884 ] } },
{ "type": "Feature", "properties": { "ADDRESS_POINT_ID": 7257513, "ADDRESS_NUMBER": "4231", "LINEAR_NAME_FULL": "Dundas St W", "ADDRESS_FULL": "4231 Dundas St W", "POSTAL_CODE": "M8X 1Y3", "MUNICIPALITY": "Etobicoke", "CITY": "Toronto", "WARD": "Etobicoke-Lakeshore (3)", "PLACE_NAME": null, "GENERAL_USE_CODE": 107010, "CENTRELINE_ID": 7257489, "LO_NUM": 4231, "LO_NUM_SUF": null, "HI_NUM": null, "HI_NUM_SUF": null, "LINEAR_NAME_ID": 558, "X": null, "Y": null, "LONGITUDE": -79.512750590899998, "LATITUDE": 43.659502126199996, "ID": 23, "NAME": "Chain Reaction Bicycles Inc.", "UNIT": null, "PHONE": "416-234-5300", "EMAIL": "crbicycles@yahoo.com", "RENTAL": "NO", "OBJECTID": 65 }, "geometry": { "type": "Point", "coordinates": [ -79.512747316570255, 43.659493546950365 ] } },
{ "type": "Feature", "properties": { "ADDRESS_POINT_ID": 27233, "ADDRESS_NUMBER": "94", "LINEAR_NAME_FULL": "Laird Dr", "ADDRESS_FULL": "94 Laird Dr", "POSTAL_CODE": "M4G 3V2", "MUNICIPALITY": "East York", "CITY": "Toronto", "WARD": "Don Valley West (15)", "PLACE_NAME": null, "GENERAL_USE_CODE": 104008, "CENTRELINE_ID": 646, "LO_NUM": 94, "LO_NUM_SUF": null, "HI_NUM": null, "HI_NUM_SUF": null, "LINEAR_NAME_ID": 215, "X": null, "Y": null, "LONGITUDE": -79.362118643900004, "LATITUDE": 43.705784666000007, "ID": 45, "NAME": "Endurosport", "UNIT": null, "PHONE": "416-449-0432", "EMAIL": "leaside@endurosport.com", "RENTAL": "YES", "OBJECTID": 66 }, "geometry": { "type": "Point", "coordinates": [ -79.36211541003577, 43.705776078195143 ] } },
{ "type": "Feature", "properties": { "ADDRESS_POINT_ID": 13991469, "ADDRESS_NUMBER": "109", "LINEAR_NAME_FULL": "Vanderhoof Ave", "ADDRESS_FULL": "109 Vanderhoof Ave", "POSTAL_CODE": "M4G 2H7", "MUNICIPALITY": "East York", "CITY": "Toronto", "WARD": "Don Valley West (15)", "PLACE_NAME": null, "GENERAL_USE_CODE": 113001, "CENTRELINE_ID": 286, "LO_NUM": 109, "LO_NUM_SUF": null, "HI_NUM": null, "HI_NUM_SUF": null, "LINEAR_NAME_ID": 366, "X": null, "Y": null, "LONGITUDE": -79.359147816199993, "LATITUDE": 43.712653534899999, "ID": 52, "NAME": "Gears Bike Shop", "UNIT": null, "PHONE": "647-729-2500 or 1-888-984-3277", "EMAIL": "ira@gearsbikeshop.com", "RENTAL": "NO", "OBJECTID": 67 }, "geometry": { "type": "Point", "coordinates": [ -79.359144581115643, 43.712644941326779 ] } },
{ "type": "Feature", "properties": { "ADDRESS_POINT_ID": 64182, "ADDRESS_NUMBER": "612", "LINEAR_NAME_FULL": "Jane St", "ADDRESS_FULL": "612 Jane St", "POSTAL_CODE": "M6S 4A6", "MUNICIPALITY": "York", "CITY": "Toronto", "WARD": "Parkdale-High Park (4)", "PLACE_NAME": null, "GENERAL_USE_CODE": 112001, "CENTRELINE_ID": 20004277, "LO_NUM": 612, "LO_NUM_SUF": null, "HI_NUM": null, "HI_NUM_SUF": null, "LINEAR_NAME_ID": 694, "X": null, "Y": null, "LONGITUDE": -79.491338944299997, "LATITUDE": 43.6652570121, "ID": 67, "NAME": "Newsons", "UNIT": null, "PHONE": "416-762-9976", "EMAIL": "info@newsons.ca", "RENTAL": "NO", "OBJECTID": 68 }, "geometry": { "type": "Point", "coordinates": [ -79.491335673829212, 43.665248433492266 ] } },
{ "type": "Feature", "properties": { "ADDRESS_POINT_ID": 30044592, "ADDRESS_NUMBER": "389", "LINEAR_NAME_FULL": "Donlands Ave", "ADDRESS_FULL": "389 Donlands Ave", "POSTAL_CODE": "M4J 3S2", "MUNICIPALITY": "East York", "CITY": "Toronto", "WARD": "Toronto-Danforth (14)", "PLACE_NAME": null, "GENERAL_USE_CODE": 115001, "CENTRELINE_ID": 10269630, "LO_NUM": 389, "LO_NUM_SUF": null, "HI_NUM": null, "HI_NUM_SUF": null, "LINEAR_NAME_ID": 109, "X": null, "Y": null, "LONGITUDE": -79.34243012, "LATITUDE": 43.693609693, "ID": 5, "NAME": "Benjamin Sports Sales & Services", "UNIT": null, "PHONE": "416-429-0493", "EMAIL": "bikes@benjaminsports.com", "RENTAL": "NO", "OBJECTID": 69 }, "geometry": { "type": "Point", "coordinates": [ -79.342430123776055, 43.693609699346105 ] } },
{ "type": "Feature", "properties": { "ADDRESS_POINT_ID": 856764, "ADDRESS_NUMBER": "779", "LINEAR_NAME_FULL": "Queen St W", "ADDRESS_FULL": "779 Queen St W", "POSTAL_CODE": "M6J 1G1", "MUNICIPALITY": "former Toronto", "CITY": "Toronto", "WARD": "Spadina-Fort York (10)", "PLACE_NAME": null, "GENERAL_USE_CODE": 107010, "CENTRELINE_ID": 1146191, "LO_NUM": 779, "LO_NUM_SUF": null, "HI_NUM": null, "HI_NUM_SUF": null, "LINEAR_NAME_ID": 4238, "X": null, "Y": null, "LONGITUDE": -79.408160267, "LATITUDE": 43.646211408999996, "ID": 15, "NAME": "Bikes On Wheels", "UNIT": null, "PHONE": "647-352-6550", "EMAIL": "queenstreet@bikesonwheels.ca", "RENTAL": "NO", "OBJECTID": 70 }, "geometry": { "type": "Point", "coordinates": [ -79.408157030172404, 43.6462028290657 ] } },
{ "type": "Feature", "properties": { "ADDRESS_POINT_ID": 11273005, "ADDRESS_NUMBER": "242", "LINEAR_NAME_FULL": "Queen St E", "ADDRESS_FULL": "242 Queen St E", "POSTAL_CODE": "M5A 1S3", "MUNICIPALITY": "former Toronto", "CITY": "Toronto", "WARD": "Toronto Centre (13)", "PLACE_NAME": null, "GENERAL_USE_CODE": 100001, "CENTRELINE_ID": 20006094, "LO_NUM": 242, "LO_NUM_SUF": null, "HI_NUM": null, "HI_NUM_SUF": null, "LINEAR_NAME_ID": 4237, "X": null, "Y": null, "LONGITUDE": -79.368594933500006, "LATITUDE": 43.654993887799996, "ID": 24, "NAME": "Charlie's Bike Joint", "UNIT": null, "PHONE": "416-546-2200", "EMAIL": "charlies@thebikejoint.com", "RENTAL": "NO", "OBJECTID": 71 }, "geometry": { "type": "Point", "coordinates": [ -79.368591703593978, 43.654985302528807 ] } },
{ "type": "Feature", "properties": { "ADDRESS_POINT_ID": 8457257, "ADDRESS_NUMBER": "156", "LINEAR_NAME_FULL": "Bathurst St", "ADDRESS_FULL": "156 Bathurst St", "POSTAL_CODE": "M5V 2R3", "MUNICIPALITY": "former Toronto", "CITY": "Toronto", "WARD": "Spadina-Fort York (10)", "PLACE_NAME": null, "GENERAL_USE_CODE": 115001, "CENTRELINE_ID": 8457245, "LO_NUM": 156, "LO_NUM_SUF": null, "HI_NUM": null, "HI_NUM_SUF": null, "LINEAR_NAME_ID": 436, "X": null, "Y": null, "LONGITUDE": -79.403945909900003, "LATITUDE": 43.646067953699998, "ID": 33, "NAME": "Cyclemotive", "UNIT": null, "PHONE": "416-916-5551", "EMAIL": "info@cyclemotive.com", "RENTAL": "NO", "OBJECTID": 72 }, "geometry": { "type": "Point", "coordinates": [ -79.403942674522412, 43.64605937625177 ] } },
{ "type": "Feature", "properties": { "ADDRESS_POINT_ID": 10537069, "ADDRESS_NUMBER": "134", "LINEAR_NAME_FULL": "Oakdale Rd", "ADDRESS_FULL": "134 Oakdale Rd", "POSTAL_CODE": "M3N 1V9", "MUNICIPALITY": "North York", "CITY": "Toronto", "WARD": "Humber River-Black Creek (7)", "PLACE_NAME": null, "GENERAL_USE_CODE": 115001, "CENTRELINE_ID": 14134863, "LO_NUM": 134, "LO_NUM_SUF": null, "HI_NUM": null, "HI_NUM_SUF": null, "LINEAR_NAME_ID": 6317, "X": null, "Y": null, "LONGITUDE": -79.526734403900008, "LATITUDE": 43.742727441499994, "ID": 41, "NAME": "Daymak (Electric Bicycles)", "UNIT": null, "PHONE": "416-749-2324", "EMAIL": "customerservice@daymak.com or sales@daymak.com", "RENTAL": "NO", "OBJECTID": 73 }, "geometry": { "type": "Point", "coordinates": [ -79.526731119211519, 43.742718849378647 ] } },
{ "type": "Feature", "properties": { "ADDRESS_POINT_ID": 10222716, "ADDRESS_NUMBER": "401", "LINEAR_NAME_FULL": "King St W", "ADDRESS_FULL": "401 King St W", "POSTAL_CODE": "M5V 1K1", "MUNICIPALITY": "former Toronto", "CITY": "Toronto", "WARD": "Spadina-Fort York (10)", "PLACE_NAME": null, "GENERAL_USE_CODE": 115001, "CENTRELINE_ID": 10222712, "LO_NUM": 401, "LO_NUM_SUF": null, "HI_NUM": null, "HI_NUM_SUF": null, "LINEAR_NAME_ID": 3780, "X": null, "Y": null, "LONGITUDE": -79.393974595800003, "LATITUDE": 43.645474078299998, "ID": 54, "NAME": "Hogtown Extreme Sports", "UNIT": null, "PHONE": "416-598-4192", "EMAIL": "hogtown1@yahoo.ca", "RENTAL": "NO", "OBJECTID": 74 }, "geometry": { "type": "Point", "coordinates": [ -79.393971360590413, 43.64546550079082 ] } },
{ "type": "Feature", "properties": { "ADDRESS_POINT_ID": 14207115, "ADDRESS_NUMBER": "5", "LINEAR_NAME_FULL": "Oxford St", "ADDRESS_FULL": "5 Oxford St", "POSTAL_CODE": "M5T 1N8", "MUNICIPALITY": "former Toronto", "CITY": "Toronto", "WARD": "University-Rosedale (11)", "PLACE_NAME": null, "GENERAL_USE_CODE": 115001, "CENTRELINE_ID": 14021256, "LO_NUM": 5, "LO_NUM_SUF": null, "HI_NUM": null, "HI_NUM_SUF": null, "LINEAR_NAME_ID": 9778, "X": null, "Y": null, "LONGITUDE": -79.400001148800001, "LATITUDE": 43.656537005699995, "ID": 63, "NAME": "Mike the Bike", "UNIT": null, "PHONE": "647-344-3570 or 416-595-5596", "EMAIL": "info@mikethebike.ca", "RENTAL": "NO", "OBJECTID": 75 }, "geometry": { "type": "Point", "coordinates": [ -79.399997914065452, 43.65652842682816 ] } },
{ "type": "Feature", "properties": { "ADDRESS_POINT_ID": 8353585, "ADDRESS_NUMBER": "610", "LINEAR_NAME_FULL": "Markham St", "ADDRESS_FULL": "610 Markham St", "POSTAL_CODE": "M6G 2L8", "MUNICIPALITY": "former Toronto", "CITY": "Toronto", "WARD": "University-Rosedale (11)", "PLACE_NAME": null, "GENERAL_USE_CODE": 115001, "CENTRELINE_ID": 8353557, "LO_NUM": 610, "LO_NUM_SUF": null, "HI_NUM": null, "HI_NUM_SUF": null, "LINEAR_NAME_ID": 3927, "X": null, "Y": null, "LONGITUDE": -79.412457686400003, "LATITUDE": 43.664360707299998, "ID": 60, "NAME": "Lapierre Toronto", "UNIT": null, "PHONE": "416-537-7139", "EMAIL": null, "RENTAL": "NO", "OBJECTID": 76 }, "geometry": { "type": "Point", "coordinates": [ -79.412454445747898, 43.664352127529739 ] } },
{ "type": "Feature", "properties": { "ADDRESS_POINT_ID": 14670935, "ADDRESS_NUMBER": "171", "LINEAR_NAME_FULL": "East Liberty St", "ADDRESS_FULL": "171 East Liberty St", "POSTAL_CODE": "M6K 3P6", "MUNICIPALITY": "former Toronto", "CITY": "Toronto", "WARD": "Spadina-Fort York (10)", "PLACE_NAME": null, "GENERAL_USE_CODE": 113001, "CENTRELINE_ID": 30015173, "LO_NUM": 171, "LO_NUM_SUF": null, "HI_NUM": null, "HI_NUM_SUF": null, "LINEAR_NAME_ID": 9318, "X": null, "Y": null, "LONGITUDE": -79.417795873000003, "LATITUDE": 43.638324575, "ID": 61, "NAME": "Liberty Street Cyclery", "UNIT": "125", "PHONE": "416-516-8880", "EMAIL": "info@libertycyclery.com", "RENTAL": "NO", "OBJECTID": 77 }, "geometry": { "type": "Point", "coordinates": [ -79.417795877270635, 43.638324576265738 ] } },
{ "type": "Feature", "properties": { "ADDRESS_POINT_ID": 870810, "ADDRESS_NUMBER": "74", "LINEAR_NAME_FULL": "Springhurst Ave", "ADDRESS_FULL": "74 Springhurst Ave", "POSTAL_CODE": "M6K 1B8", "MUNICIPALITY": "former Toronto", "CITY": "Toronto", "WARD": "Parkdale-High Park (4)", "PLACE_NAME": null, "GENERAL_USE_CODE": 100001, "CENTRELINE_ID": 14036343, "LO_NUM": 74, "LO_NUM_SUF": null, "HI_NUM": null, "HI_NUM_SUF": null, "LINEAR_NAME_ID": 4434, "X": null, "Y": null, "LONGITUDE": -79.432639136800006, "LATITUDE": 43.633854600900001, "ID": 62, "NAME": "MetroCycleTO", "UNIT": null, "PHONE": "647-771-1650", "EMAIL": "info@metrocycleto.com", "RENTAL": "NO", "OBJECTID": 78 }, "geometry": { "type": "Point", "coordinates": [ -79.432635889098648, 43.633846023400388 ] } },
{ "type": "Feature", "properties": { "ADDRESS_POINT_ID": 7807900, "ADDRESS_NUMBER": "594", "LINEAR_NAME_FULL": "Dundas St W", "ADDRESS_FULL": "594 Dundas St W", "POSTAL_CODE": "M5T 1H5", "MUNICIPALITY": "former Toronto", "CITY": "Toronto", "WARD": "University-Rosedale (11)", "PLACE_NAME": null, "GENERAL_USE_CODE": 107010, "CENTRELINE_ID": 7807888, "LO_NUM": 594, "LO_NUM_SUF": null, "HI_NUM": null, "HI_NUM_SUF": null, "LINEAR_NAME_ID": 558, "X": null, "Y": null, "LONGITUDE": -79.400891939899992, "LATITUDE": 43.652432497200003, "ID": 9, "NAME": "Bike House", "UNIT": null, "PHONE": "416-839-6401", "EMAIL": "bikehouse.ca@hotmail.com", "RENTAL": "NO", "OBJECTID": 79 }, "geometry": { "type": "Point", "coordinates": [ -79.400888703178325, 43.652423919012421 ] } },
{ "type": "Feature", "properties": { "ADDRESS_POINT_ID": 772806, "ADDRESS_NUMBER": "412", "LINEAR_NAME_FULL": "Bloor St W", "ADDRESS_FULL": "412 Bloor St W", "POSTAL_CODE": "M5S 1X5", "MUNICIPALITY": "former Toronto", "CITY": "Toronto", "WARD": "University-Rosedale (11)", "PLACE_NAME": null, "GENERAL_USE_CODE": 112001, "CENTRELINE_ID": 1142919, "LO_NUM": 412, "LO_NUM_SUF": null, "HI_NUM": null, "HI_NUM_SUF": null, "LINEAR_NAME_ID": 458, "X": null, "Y": null, "LONGITUDE": -79.408088817600003, "LATITUDE": 43.665988116899996, "ID": 28, "NAME": "Curbside Cycle", "UNIT": null, "PHONE": "416-920-4933 or 1-(866)-920-4933", "EMAIL": "info@curbside.on.ca info@curbside.on.ca", "RENTAL": "YES", "OBJECTID": 80 }, "geometry": { "type": "Point", "coordinates": [ -79.408085579951319, 43.665979533490351 ] } },
{ "type": "Feature", "properties": { "ADDRESS_POINT_ID": 3735246, "ADDRESS_NUMBER": "650", "LINEAR_NAME_FULL": "Queen St W", "ADDRESS_FULL": "650 Queen St W", "POSTAL_CODE": "M6J 1E4", "MUNICIPALITY": "former Toronto", "CITY": "Toronto", "WARD": "Spadina-Fort York (10)", "PLACE_NAME": null, "GENERAL_USE_CODE": 107010, "CENTRELINE_ID": 3735230, "LO_NUM": 650, "LO_NUM_SUF": null, "HI_NUM": null, "HI_NUM_SUF": null, "LINEAR_NAME_ID": 4238, "X": null, "Y": null, "LONGITUDE": -79.406445552099996, "LATITUDE": 43.646954706800003, "ID": 53, "NAME": "Giant Toronto", "UNIT": null, "PHONE": "416-703-9990", "EMAIL": "info@gianttoronto.com", "RENTAL": "NO", "OBJECTID": 81 }, "geometry": { "type": "Point", "coordinates": [ -79.406442308745724, 43.646946121647872 ] } },
{ "type": "Feature", "properties": { "ADDRESS_POINT_ID": 14210810, "ADDRESS_NUMBER": "2128", "LINEAR_NAME_FULL": "Bloor St W", "ADDRESS_FULL": "2128 Bloor St W", "POSTAL_CODE": "M6S 1M8", "MUNICIPALITY": "former Toronto", "CITY": "Toronto", "WARD": "Parkdale-High Park (4)", "PLACE_NAME": null, "GENERAL_USE_CODE": 115001, "CENTRELINE_ID": 10250099, "LO_NUM": 2128, "LO_NUM_SUF": null, "HI_NUM": null, "HI_NUM_SUF": null, "LINEAR_NAME_ID": 458, "X": null, "Y": null, "LONGITUDE": -79.472418579099994, "LATITUDE": 43.652237298400003, "ID": 70, "NAME": "Popawheelie (Toronto's Family Bike Shop)", "UNIT": null, "PHONE": "416-769-0606", "EMAIL": "info@popawheelie.ca", "RENTAL": "NO", "OBJECTID": 82 }, "geometry": { "type": "Point", "coordinates": [ -79.472415317745273, 43.652228719239346 ] } },
{ "type": "Feature", "properties": { "ADDRESS_POINT_ID": 10257814, "ADDRESS_NUMBER": "2214", "LINEAR_NAME_FULL": "Bloor St W", "ADDRESS_FULL": "2214 Bloor St W", "POSTAL_CODE": "M6S 1N4", "MUNICIPALITY": "former Toronto", "CITY": "Toronto", "WARD": "Parkdale-High Park (4)", "PLACE_NAME": null, "GENERAL_USE_CODE": 115001, "CENTRELINE_ID": 10257806, "LO_NUM": 2214, "LO_NUM_SUF": null, "HI_NUM": null, "HI_NUM_SUF": null, "LINEAR_NAME_ID": 458, "X": null, "Y": null, "LONGITUDE": -79.476061129200005, "LATITUDE": 43.651442271599997, "ID": 71, "NAME": "Racer Sportif", "UNIT": null, "PHONE": "416-769-5731", "EMAIL": "info@racersportif.com", "RENTAL": "NO", "OBJECTID": 83 }, "geometry": { "type": "Point", "coordinates": [ -79.476057864068395, 43.651433694013484 ] } },
{ "type": "Feature", "properties": { "ADDRESS_POINT_ID": 7853541, "ADDRESS_NUMBER": "19", "LINEAR_NAME_FULL": "Kensington Ave", "ADDRESS_FULL": "19 Kensington Ave", "POSTAL_CODE": "M5T 2J8", "MUNICIPALITY": "former Toronto", "CITY": "Toronto", "WARD": "University-Rosedale (11)", "PLACE_NAME": null, "GENERAL_USE_CODE": 107010, "CENTRELINE_ID": 7853494, "LO_NUM": 19, "LO_NUM_SUF": null, "HI_NUM": null, "HI_NUM_SUF": null, "LINEAR_NAME_ID": 9813, "X": null, "Y": null, "LONGITUDE": -79.399853866900003, "LATITUDE": 43.653140024399995, "ID": 72, "NAME": "Red Arrow Bikes", "UNIT": null, "PHONE": "416-464-4243", "EMAIL": null, "RENTAL": "NO", "OBJECTID": 84 }, "geometry": { "type": "Point", "coordinates": [ -79.39985063253701, 43.653131439077335 ] } },
{ "type": "Feature", "properties": { "ADDRESS_POINT_ID": 14258504, "ADDRESS_NUMBER": "33", "LINEAR_NAME_FULL": "Lombard St", "ADDRESS_FULL": "33 Lombard St", "POSTAL_CODE": "M5C 3H8", "MUNICIPALITY": "former Toronto", "CITY": "Toronto", "WARD": "Toronto Centre (13)", "PLACE_NAME": null, "GENERAL_USE_CODE": 100002, "CENTRELINE_ID": 14036956, "LO_NUM": 33, "LO_NUM_SUF": null, "HI_NUM": null, "HI_NUM_SUF": null, "LINEAR_NAME_ID": 3866, "X": null, "Y": null, "LONGITUDE": -79.375756960700002, "LATITUDE": 43.6515292757, "ID": 73, "NAME": "Regal Bicycles Inc.", "UNIT": "1506", "PHONE": "416-768-5416", "EMAIL": "info@regalbicycles.com", "RENTAL": "NO", "OBJECTID": 85 }, "geometry": { "type": "Point", "coordinates": [ -79.375753726478834, 43.651520696128905 ] } },
{ "type": "Feature", "properties": { "ADDRESS_POINT_ID": 30058593, "ADDRESS_NUMBER": "778", "LINEAR_NAME_FULL": "Dundas St W", "ADDRESS_FULL": "778 Dundas St W", "POSTAL_CODE": "M6J 1V1", "MUNICIPALITY": "former Toronto", "CITY": "Toronto", "WARD": "University-Rosedale (11)", "PLACE_NAME": null, "GENERAL_USE_CODE": 112001, "CENTRELINE_ID": 1145172, "LO_NUM": 778, "LO_NUM_SUF": null, "HI_NUM": null, "HI_NUM_SUF": null, "LINEAR_NAME_ID": 558, "X": null, "Y": null, "LONGITUDE": -79.407728282999997, "LATITUDE": 43.652172573999998, "ID": 74, "NAME": "Ride Away Bikes", "UNIT": null, "PHONE": "647-352-7433", "EMAIL": "info@rideawaybikes.ca", "RENTAL": "NO", "OBJECTID": 86 }, "geometry": { "type": "Point", "coordinates": [ -79.407728285364726, 43.65217257455636 ] } },
{ "type": "Feature", "properties": { "ADDRESS_POINT_ID": 807922, "ADDRESS_NUMBER": "80", "LINEAR_NAME_FULL": "Geary Ave", "ADDRESS_FULL": "80 Geary Ave", "POSTAL_CODE": "M6H 2B5", "MUNICIPALITY": "former Toronto", "CITY": "Toronto", "WARD": "Davenport (9)", "PLACE_NAME": null, "GENERAL_USE_CODE": 107010, "CENTRELINE_ID": 1142078, "LO_NUM": 80, "LO_NUM_SUF": null, "HI_NUM": null, "HI_NUM_SUF": null, "LINEAR_NAME_ID": 3490, "X": null, "Y": null, "LONGITUDE": -79.433092928400001, "LATITUDE": 43.670990226099995, "ID": 75, "NAME": "Riders Cycle & Board", "UNIT": null, "PHONE": "647-349-5649", "EMAIL": null, "RENTAL": "NO", "OBJECTID": 87 }, "geometry": { "type": "Point", "coordinates": [ -79.433089680733701, 43.670981643542419 ] } },
{ "type": "Feature", "properties": { "ADDRESS_POINT_ID": 32638, "ADDRESS_NUMBER": "95", "LINEAR_NAME_FULL": "Research Rd", "ADDRESS_FULL": "95 Research Rd", "POSTAL_CODE": "M4G 2G8", "MUNICIPALITY": "East York", "CITY": "Toronto", "WARD": "Don Valley West (15)", "PLACE_NAME": null, "GENERAL_USE_CODE": 113001, "CENTRELINE_ID": 283, "LO_NUM": 95, "LO_NUM_SUF": null, "HI_NUM": null, "HI_NUM_SUF": null, "LINEAR_NAME_ID": 303, "X": null, "Y": null, "LONGITUDE": -79.351806901299994, "LATITUDE": 43.712999638100001, "ID": 76, "NAME": "Sandy's Cycle Shop and Books", "UNIT": "1", "PHONE": "416-467-1035", "EMAIL": "sandyscycle@hotmail.com", "RENTAL": "NO", "OBJECTID": 88 }, "geometry": { "type": "Point", "coordinates": [ -79.351803669730899, 43.712991047331165 ] } },
{ "type": "Feature", "properties": { "ADDRESS_POINT_ID": 14207403, "ADDRESS_NUMBER": "381", "LINEAR_NAME_FULL": "Roncesvalles Ave", "ADDRESS_FULL": "381 Roncesvalles Ave", "POSTAL_CODE": "M6R 2M8", "MUNICIPALITY": "former Toronto", "CITY": "Toronto", "WARD": "Parkdale-High Park (4)", "PLACE_NAME": null, "GENERAL_USE_CODE": 115001, "CENTRELINE_ID": 8030731, "LO_NUM": 381, "LO_NUM_SUF": null, "HI_NUM": null, "HI_NUM_SUF": null, "LINEAR_NAME_ID": 4310, "X": null, "Y": null, "LONGITUDE": -79.450352601999995, "LATITUDE": 43.650285542, "ID": 77, "NAME": "Set Me Free (Recycle Bike Co.)", "UNIT": null, "PHONE": "416-532-4147", "EMAIL": null, "RENTAL": "YES", "OBJECTID": 89 }, "geometry": { "type": "Point", "coordinates": [ -79.450349348621415, 43.650276962253869 ] } },
{ "type": "Feature", "properties": { "ADDRESS_POINT_ID": 30021033, "ADDRESS_NUMBER": "896", "LINEAR_NAME_FULL": "Don Mills Rd", "ADDRESS_FULL": "896 Don Mills Rd", "POSTAL_CODE": "M3C 1V6", "MUNICIPALITY": "North York", "CITY": "Toronto", "WARD": "Don Valley East (16)", "PLACE_NAME": null, "GENERAL_USE_CODE": 113001, "CENTRELINE_ID": 4709500, "LO_NUM": 896, "LO_NUM_SUF": null, "HI_NUM": null, "HI_NUM_SUF": null, "LINEAR_NAME_ID": 100, "X": null, "Y": null, "LONGITUDE": -79.34330465939999, "LATITUDE": 43.726234806899996, "ID": 78, "NAME": "Skiis and Biikes", "UNIT": null, "PHONE": "416-391-0654", "EMAIL": "toronto@skiisandbikes.com", "RENTAL": "NO", "OBJECTID": 90 }, "geometry": { "type": "Point", "coordinates": [ -79.343301433593311, 43.726226208932125 ] } },
{ "type": "Feature", "properties": { "ADDRESS_POINT_ID": 10923889, "ADDRESS_NUMBER": "1889", "LINEAR_NAME_FULL": "Avenue Rd", "ADDRESS_FULL": "1889 Avenue Rd", "POSTAL_CODE": "M5M 3Z9", "MUNICIPALITY": "North York", "CITY": "Toronto", "WARD": "Eglinton-Lawrence (8)", "PLACE_NAME": null, "GENERAL_USE_CODE": 115001, "CENTRELINE_ID": 10923887, "LO_NUM": 1889, "LO_NUM_SUF": null, "HI_NUM": null, "HI_NUM_SUF": null, "LINEAR_NAME_ID": 2924, "X": null, "Y": null, "LONGITUDE": -79.419176145500003, "LATITUDE": 43.7326834343, "ID": 79, "NAME": "Spokes And Sports", "UNIT": null, "PHONE": "416-787-6238", "EMAIL": "info@spokesandsports.com", "RENTAL": "NO", "OBJECTID": 91 }, "geometry": { "type": "Point", "coordinates": [ -79.41917289337006, 43.732674837648418 ] } },
{ "type": "Feature", "properties": { "ADDRESS_POINT_ID": 20037712, "ADDRESS_NUMBER": "1541", "LINEAR_NAME_FULL": "Bayview Ave", "ADDRESS_FULL": "1541 Bayview Ave", "POSTAL_CODE": "M4G 3B5", "MUNICIPALITY": "East York", "CITY": "Toronto", "WARD": "Don Valley West (15)", "PLACE_NAME": null, "GENERAL_USE_CODE": 115001, "CENTRELINE_ID": 9340638, "LO_NUM": 1541, "LO_NUM_SUF": null, "HI_NUM": null, "HI_NUM_SUF": null, "LINEAR_NAME_ID": 24, "X": null, "Y": null, "LONGITUDE": -79.374639071899992, "LATITUDE": 43.705068149200002, "ID": 80, "NAME": "Sport Swap", "UNIT": null, "PHONE": "416-481-7927", "EMAIL": "info@sportswap.com", "RENTAL": "NO", "OBJECTID": 92 }, "geometry": { "type": "Point", "coordinates": [ -79.374635838424695, 43.705059556207814 ] } },
{ "type": "Feature", "properties": { "ADDRESS_POINT_ID": 8608627, "ADDRESS_NUMBER": "2454", "LINEAR_NAME_FULL": "Yonge St", "ADDRESS_FULL": "2454 Yonge St", "POSTAL_CODE": "M4P 2H5", "MUNICIPALITY": "former Toronto", "CITY": "Toronto", "WARD": "Eglinton-Lawrence (8)", "PLACE_NAME": null, "GENERAL_USE_CODE": 115001, "CENTRELINE_ID": 8608622, "LO_NUM": 2454, "LO_NUM_SUF": null, "HI_NUM": null, "HI_NUM_SUF": null, "LINEAR_NAME_ID": 4733, "X": null, "Y": null, "LONGITUDE": -79.399573287400003, "LATITUDE": 43.711031122899996, "ID": 81, "NAME": "Sporting Life Bikes and Boards", "UNIT": null, "PHONE": "416-485-4440", "EMAIL": "david.reynolds@sportinglife.ca", "RENTAL": "NO", "OBJECTID": 93 }, "geometry": { "type": "Point", "coordinates": [ -79.399570049844911, 43.711022527592014 ] } },
{ "type": "Feature", "properties": { "ADDRESS_POINT_ID": 3327188, "ADDRESS_NUMBER": "25", "LINEAR_NAME_FULL": "The West Mall", "ADDRESS_FULL": "25 The West Mall", "POSTAL_CODE": "M9C 1B8", "MUNICIPALITY": "Etobicoke", "CITY": "Toronto", "WARD": "Etobicoke-Lakeshore (3)", "PLACE_NAME": null, "GENERAL_USE_CODE": 107003, "CENTRELINE_ID": 3327190, "LO_NUM": 25, "LO_NUM_SUF": null, "HI_NUM": null, "HI_NUM_SUF": null, "LINEAR_NAME_ID": 2604, "X": null, "Y": null, "LONGITUDE": -79.557210295700003, "LATITUDE": 43.611955672000001, "ID": 82, "NAME": "Sporting Life Sherway Gardens", "UNIT": null, "PHONE": "416 620-7750", "EMAIL": null, "RENTAL": "NO", "OBJECTID": 94 }, "geometry": { "type": "Point", "coordinates": [ -79.557207009041804, 43.611947107569812 ] } },
{ "type": "Feature", "properties": { "ADDRESS_POINT_ID": 8566216, "ADDRESS_NUMBER": "2665", "LINEAR_NAME_FULL": "Yonge St", "ADDRESS_FULL": "2665 Yonge St", "POSTAL_CODE": "M4P 2J6", "MUNICIPALITY": "former Toronto", "CITY": "Toronto", "WARD": "Don Valley West (15)", "PLACE_NAME": null, "GENERAL_USE_CODE": 115001, "CENTRELINE_ID": 8566211, "LO_NUM": 2665, "LO_NUM_SUF": null, "HI_NUM": null, "HI_NUM_SUF": null, "LINEAR_NAME_ID": 4733, "X": null, "Y": null, "LONGITUDE": -79.399926567199998, "LATITUDE": 43.716372176699998, "ID": 83, "NAME": "Sporting Life Store Yonge St. Store", "UNIT": null, "PHONE": "416-485-1611", "EMAIL": null, "RENTAL": "NO", "OBJECTID": 95 }, "geometry": { "type": "Point", "coordinates": [ -79.399923320098921, 43.716363582377284 ] } },
{ "type": "Feature", "properties": { "ADDRESS_POINT_ID": 773250, "ADDRESS_NUMBER": "1204", "LINEAR_NAME_FULL": "Bloor St W", "ADDRESS_FULL": "1204 Bloor St W", "POSTAL_CODE": "M6H 1N2", "MUNICIPALITY": "former Toronto", "CITY": "Toronto", "WARD": "Davenport (9)", "PLACE_NAME": null, "GENERAL_USE_CODE": 107010, "CENTRELINE_ID": 1144031, "LO_NUM": 1204, "LO_NUM_SUF": null, "HI_NUM": null, "HI_NUM_SUF": null, "LINEAR_NAME_ID": 458, "X": null, "Y": null, "LONGITUDE": -79.438390366000007, "LATITUDE": 43.659443037200006, "ID": 84, "NAME": "Sweet Pete's Bike Shop", "UNIT": null, "PHONE": "416 533-4481", "EMAIL": "info@sweetpetes.com", "RENTAL": "YES", "OBJECTID": 96 }, "geometry": { "type": "Point", "coordinates": [ -79.438387117536365, 43.659434456171034 ] } },
{ "type": "Feature", "properties": { "ADDRESS_POINT_ID": 10736618, "ADDRESS_NUMBER": "517", "LINEAR_NAME_FULL": "Bloor St W", "ADDRESS_FULL": "517 Bloor St W", "POSTAL_CODE": "M5S 1Y4", "MUNICIPALITY": "former Toronto", "CITY": "Toronto", "WARD": "University-Rosedale (11)", "PLACE_NAME": null, "GENERAL_USE_CODE": 115001, "CENTRELINE_ID": 10736609, "LO_NUM": 517, "LO_NUM_SUF": null, "HI_NUM": null, "HI_NUM_SUF": null, "LINEAR_NAME_ID": 458, "X": null, "Y": null, "LONGITUDE": -79.408928371599998, "LATITUDE": 43.665398543800002, "ID": 85, "NAME": "Sweet Pete's Bike Shop", "UNIT": null, "PHONE": "416 533-4225", "EMAIL": "info@sweetpetes.com", "RENTAL": "NO", "OBJECTID": 97 }, "geometry": { "type": "Point", "coordinates": [ -79.408925129007571, 43.665389960813627 ] } },
{ "type": "Feature", "properties": { "ADDRESS_POINT_ID": 8292619, "ADDRESS_NUMBER": "651", "LINEAR_NAME_FULL": "Queen St E", "ADDRESS_FULL": "651 Queen St E", "POSTAL_CODE": "M4M 1G4", "MUNICIPALITY": "former Toronto", "CITY": "Toronto", "WARD": "Toronto-Danforth (14)", "PLACE_NAME": null, "GENERAL_USE_CODE": 115001, "CENTRELINE_ID": 8292593, "LO_NUM": 651, "LO_NUM_SUF": null, "HI_NUM": null, "HI_NUM_SUF": null, "LINEAR_NAME_ID": 4237, "X": null, "Y": null, "LONGITUDE": -79.352040269900002, "LATITUDE": 43.658206878500003, "ID": 86, "NAME": "Switchback Cyclery", "UNIT": null, "PHONE": "416-466-6776", "EMAIL": "propel@switchbackcyclery.ca", "RENTAL": "NO", "OBJECTID": 98 }, "geometry": { "type": "Point", "coordinates": [ -79.352037050772125, 43.658198295632481 ] } }
]
}
